{"type":"FeatureCollection","features":[{"type":"Feature","properties":{"addr:city":"Utrecht","addr:housenumber":"4","addr:postcode":"3527VX","addr:street":"Grebbeberglaan","leisure":"sports_centre","name":"Zwaluwen Utrecht 1911","phone":"+31 30 293 5833","source":"BAG","source:date":"2014-02-11","sport":"soccer","wheelchair:description":"Lift 1,1 x 1,4 m door plaatsing ongeschikt voor rolstoelen. Toilet is bergruimte.","wikidata":"Q2411821","wikipedia":"nl:Zwaluwen Utrecht 1911"},"geometry":{"type":"Point","coordinates":[5.1001587,52.0794193]}},{"type":"Feature","properties":{"leisure":"sports_centre","name":"Treize Points","opening_hours":"Mo 19:00-21:00; We 19:00-21:00; Sa 13:00-16:00","sport":"boules","website":"http://www.treizepoints.nl/"},"geometry":{"type":"Point","coordinates":[5.0847787,52.1066931]}},{"type":"Feature","properties":{"addr:city":"Nieuwegein","addr:housenumber":"1","addr:postcode":"3437PJ","addr:street":"Galecopperzoom","check_date":"2025-12-09","leisure":"sports_centre","name":"Petanquecentrum Nieuwegein","source":"BAG","source:date":"2014-08-07","sport":"boules","website":"https://pvn.nl"},"geometry":{"type":"Point","coordinates":[5.0776276,52.0591148]}},{"type":"Feature","properties":{"addr:city":"Utrecht","addr:housenumber":"427","addr:postcode":"3511PJ","addr:street":"Oudegracht","leisure":"sports_centre","name":"Equal Yoga","source":"BAG","sport":"yoga;pilates","website":"https://www.equalyoga.com/"},"geometry":{"type":"Point","coordinates":[5.1229033,52.081764]}},{"type":"Feature","properties":{"addr:city":"Groenekan","addr:housenumber":"75","addr:postcode":"3737BM","addr:street":"Voordorpsedijk","leisure":"sports_centre","name":"Tennisvereniging FAK","source":"BAG","source:date":"2014-08-08","sport":"tennis","website":"https://www.tvfak.nl/"},"geometry":{"type":"Point","coordinates":[5.1671197,52.108747]}},{"type":"Feature","properties":{"addr:city":"Utrecht","addr:housenumber":"13","addr:postcode":"3525BB","addr:street":"Verlengde Hoogravenseweg","check_date":"2026-04-10","email":"info@urvviking.nl","leisure":"sports_centre","name":"Viking","phone":"+31 30 289 0870","sport":"rowing","website":"https://www.urvviking.nl/"},"geometry":{"type":"Point","coordinates":[5.1123239,52.0597175]}},{"type":"Feature","properties":{"addr:city":"Utrecht","addr:housenumber":"13","addr:postcode":"3525BB","addr:street":"Verlengde Hoogravenseweg","check_date":"2026-04-10","description":"Algemene Utrechtse Studenten Roeivereniging Orca","email":"info@orcaroeien.nl","leisure":"sports_centre","name":"A.U.S.R. Orca","phone":"+31 30 289 0860","sport":"rowing","website":"https://orcaroeien.nl/"},"geometry":{"type":"Point","coordinates":[5.1124216,52.0599049]}},{"type":"Feature","properties":{"addr:city":"Utrecht","addr:housenumber":"13","addr:postcode":"3525BB","addr:street":"Verlengde Hoogravenseweg","check_date":"2026-04-10","description":"Utrechtsche Studenten Roeivereeniging Triton","email":"bestuur@usrtriton.nl","leisure":"sports_centre","name":"U.S.R. Triton","phone":"+31 30 288 9588","sport":"rowing","website":"https://usrtriton.nl/"},"geometry":{"type":"Point","coordinates":[5.1125636,52.0601781]}},{"type":"Feature","properties":{"leisure":"swimming_pool"},"geometry":{"type":"Point","coordinates":[5.1322501,52.1164941]}},{"type":"Feature","properties":{"addr:city":"Utrecht","addr:housenumber":"366","addr:postcode":"3511PP","addr:street":"Oudegracht","check_date":"2025-10-07","email":"info@studionatuurlijk.nl","leisure":"fitness_centre","name":"Studio Natuurlijk","phone":"+31 6 2752 8045","source":"BAG","source:date":"2014-02-11","sport":"yoga","website":"https://studionatuurlijk.nl"},"geometry":{"type":"Point","coordinates":[5.123242,52.0843269]}},{"type":"Feature","properties":{"addr:city":"Utrecht","addr:housenumber":"318","addr:postcode":"3511PK","addr:street":"Oudegracht","leisure":"fitness_centre","name":"Kinderyoga Utrecht","note":"Aimed at children","source":"BAG","source:date":"2014-02-11","sport":"yoga","website":"https://www.kinderyoga-utrecht.nl/"},"geometry":{"type":"Point","coordinates":[5.1226265,52.0858482]}},{"type":"Feature","properties":{"addr:city":"Utrecht","addr:housenumber":"252","addr:postcode":"3511NV","addr:street":"Oudegracht","leisure":"sports_centre","name":"Newstyle","opening_hours":"Mo-Fr 08:00-22:30; Sa-Su 09:00-16:00","phone":"+31 30 234 0662","source":"BAG","source:date":"2014-02-11","sport":"fitness","toilets:wheelchair":"no","website":"https://www.newstylehealthcenters.com/newstyle-oudegracht/","wheelchair":"no","wheelchair:description":"drempel ca 9 cm hoog."},"geometry":{"type":"Point","coordinates":[5.1220556,52.0875867]}},{"type":"Feature","properties":{"addr:city":"Utrecht","addr:housenumber":"9","addr:postcode":"3512BR","addr:street":"Drift","leisure":"sports_centre","name":"TrainMore","opening_hours":"Mo-Su 07:00-23:00","source":"BAG","source:date":"2014-02-11","sport":"fitness","swimming_pool":"no","website":"https://trainmore.nl/clubs/janskerkhof/"},"geometry":{"type":"Point","coordinates":[5.1232499,52.0933842]}},{"type":"Feature","properties":{"addr:city":"Utrecht","addr:housenumber":"375-377","addr:street":"Herculesplein","brand":"Basic-Fit","brand:wikidata":"Q40165577","brand:wikipedia":"nl:Basic-Fit","check_date":"2026-01-11","internet_access":"wlan","internet_access:fee":"no","leisure":"fitness_centre","name":"Basic-Fit","opening_hours":"Mo-Fr 07:00-22:30; Sa-Su 09:00-16:00","website":"https://www.basic-fit.com/nl-nl/clubs/basic-fit-utrecht-herculesplein-cdd6d923d6684068acde006a73f6b459.html"},"geometry":{"type":"Point","coordinates":[5.1445973,52.078665]}},{"type":"Feature","properties":{"brand":"Sanshinkai Aikido","contact:facebook":"https://facebook.com/SanshinkaiAikidoUtrecht","description":"Aikido Switzerland - Sanshinkai group","email":"utrecht@sanshinkai.eu","leisure":"sports_centre","level":"1","name":"Sanshinkai Aikido Utrecht","note":"brand should remain literally Sanshinkai Aikido description should remain Federation Name - Group Name","opening_hours":"Mo 19:30-21:00; We 19:30-21:00; Th 19:30-21:00; Sa 09:00-10:30","smoking":"no","sport":"aikido","website":"http://utrecht.sanshinkai.eu","wheelchair":"yes"},"geometry":{"type":"Point","coordinates":[5.1396952,52.076874]}},{"type":"Feature","properties":{"addr:city":"Utrecht","addr:housenumber":"160","addr:postcode":"3582EP","addr:street":"Gansstraat","leisure":"sports_centre","name":"Boxing Society","source":"BAG","source:date":"2013-11-26","sport":"boxing","website":"https://boxingsociety.nl/"},"geometry":{"type":"Point","coordinates":[5.130264,52.0783684]}},{"type":"Feature","properties":{"addr:city":"Utrecht","addr:housenumber":"304","addr:postcode":"3585LD","addr:street":"Koningsweg","leisure":"sports_centre","name":"Schietsportvereniging De Kampioen","source":"BAG","source:date":"2013-11-26","url":"http://www.dekampioenutrecht.nl/"},"geometry":{"type":"Point","coordinates":[5.1431804,52.0755156]}},{"type":"Feature","properties":{"addr:city":"Utrecht","addr:housenumber":"49","addr:postcode":"3585LK","addr:street":"Mytylweg","email":"bestuur@utvkrommerijn.nl","fee":"yes","leisure":"sports_centre","name":"UTV Kromme Rijn","source":"BAG","source:date":"2013-11-26","sport":"tennis","website":"https://www.utvkrommerijn.nl"},"geometry":{"type":"Point","coordinates":[5.1553388,52.0770912]}},{"type":"Feature","properties":{"addr:city":"Utrecht","addr:housenumber":"227","addr:postcode":"3551CC","addr:street":"Amsterdamsestraatweg","check_date":"2025-10-27","email":"info@iyogautrecht.nl","leisure":"fitness_centre","name":"iYoga","phone":"+31 6 1919 5182","source":"BAG","source:date":"2014-01-22","sport":"yoga","website":"https://www.iyogautrecht.nl"},"geometry":{"type":"Point","coordinates":[5.1015255,52.0999713]}},{"type":"Feature","properties":{"addr:city":"Utrecht","addr:housenumber":"115","addr:postcode":"3582XN","addr:street":"Ina Boudier-Bakkerlaan","alt_name":"The Rep. Club","leisure":"sports_centre","name":"The Rep Club","opening_hours":"Mo-Su 07:00-22:00","phone":"+31 30 251 8483","source":"BAG","source:date":"2014-02-11","sport":"fitness","website":"https://the-rep.club/"},"geometry":{"type":"Point","coordinates":[5.1339338,52.079863]}},{"type":"Feature","properties":{"addr:city":"Utrecht","addr:housenumber":"3","addr:postcode":"3581SP","addr:street":"Wolter Heukelslaan","leisure":"fitness_centre","name":"House of the Fittest","source":"BAG","source:date":"2014-02-11","sport":"fitness","website":"https://houseofthefittest.nl/"},"geometry":{"type":"Point","coordinates":[5.1346924,52.0903887]}},{"type":"Feature","properties":{"addr:city":"Utrecht","addr:housenumber":"33","addr:postcode":"3581PP","addr:street":"Schoolstraat","leisure":"sports_centre","name":"Gymzaal","source":"BAG","source:date":"2014-02-11","toilets:wheelchair":"no","wheelchair":"no","wheelchair:description":"Drempel buiten ca 30 cm, binnen ca 5 cm."},"geometry":{"type":"Point","coordinates":[5.1293157,52.0913476]}},{"type":"Feature","properties":{"addr:city":"Utrecht","addr:housenumber":"6","addr:postcode":"3581PX","addr:street":"Schoolplein","leisure":"sports_centre","name":"Gymzaal (Schoolplein)","source":"BAG","source:date":"2014-02-11","toilets:wheelchair":"no","wheelchair":"no","wheelchair:description":"Drempel ca 20 cm."},"geometry":{"type":"Point","coordinates":[5.129972,52.0914273]}},{"type":"Feature","properties":{"addr:city":"Utrecht","addr:housenumber":"1","addr:postcode":"3572RA","addr:street":"St.-Janshovenstraat","leisure":"fitness_centre","name":"Yoga Moves One","source":"BAG","source:date":"2014-02-11","sport":"yoga","website":"https://www.yogamoves.nl/one"},"geometry":{"type":"Point","coordinates":[5.1274082,52.0953939]}},{"type":"Feature","properties":{"addr:city":"Utrecht","addr:housenumber":"2","addr:postcode":"3572LA","addr:street":"Jan van Galenstraat","check_date":"2026-04-07","check_date:opening_hours":"2026-04-07","email":"info@alphafitness.nl","leisure":"fitness_centre","name":"Alpha Fitness","opening_hours":"Mo-Th 08:00-21:00, Fr 08:00-18:00, Sa 08:00-12:00","phone":"+31 30 272 1583","source":"BAG","source:date":"2014-02-11","website":"https://alphafitness.nl/locaties/utrecht/"},"geometry":{"type":"Point","coordinates":[5.1354966,52.1019288]}},{"type":"Feature","properties":{"addr:city":"Utrecht","addr:housenumber":"4","addr:postcode":"3572BA","addr:street":"Biltstraat","fee":"yes","leisure":"sports_centre","name":"O.Z.E.B.I.","opening_hours":"Mo-Th 11:00-01:00; Fr-Sa 11:00-02:00; Su 11:00-01:00","payment:cash":"yes","payment:debit_cards":"yes","source":"BAG","source:date":"2014-02-11","sport":"snooker;billiards;pool"},"geometry":{"type":"Point","coordinates":[5.1270064,52.0957108]}},{"type":"Feature","properties":{"addr:city":"Utrecht","addr:housenumber":"387","addr:postcode":"3511PG","addr:street":"Oudegracht","leisure":"sports_centre","name":"Balanz","source":"BAG","source:date":"2014-02-11","sport":"yoga;pilates","website":"https://balanzs.nl/"},"geometry":{"type":"Point","coordinates":[5.1225302,52.0832443]}},{"type":"Feature","properties":{"addr:city":"Utrecht","addr:housenumber":"33","addr:postcode":"3512KB","addr:street":"Herenstraat","leisure":"sports_centre","name":"Hrnstr33","source":"BAG","source:date":"2014-02-11","website":"https://hrnstr33.nl/"},"geometry":{"type":"Point","coordinates":[5.126554,52.0896552]}},{"type":"Feature","properties":{"addr:city":"Utrecht","addr:housenumber":"4","addr:postcode":"3527LD","addr:street":"Koningin Wilhelminalaan","climbing":"bouldering","climbing:boulder":"yes","climbing:sport":"no","climbing:toprope":"no","climbing:traditional":"no","email":"info@boulderhalsterk.nl","fee":"yes","indoor":"yes","leisure":"sports_centre","name":"Boulderhal Sterk","opening_hours":"Mo-Su 08:00-00:00","phone":"+31 30 737 0615","source":"BAG","source:date":"2014-02-11","sport":"climbing","website":"https://www.boulderhalsterk.nl/"},"geometry":{"type":"Point","coordinates":[5.1083846,52.0762437]}},{"type":"Feature","properties":{"addr:city":"Utrecht","addr:housenumber":"26","addr:postcode":"3514BB","addr:street":"Lauwerecht","leisure":"fitness_centre","name":"Pilates Studio Utrecht","source":"BAG","source:date":"2014-02-11","website":"https://www.pilates-utrecht.nl"},"geometry":{"type":"Point","coordinates":[5.112255,52.1007318]}},{"type":"Feature","properties":{"addr:city":"Utrecht","addr:housenumber":"2A","addr:postcode":"3513EW","addr:street":"Westerdijk","branch":"Utrecht Westerdijk","brand":"SportCity","brand:website":"https://www.sportcity.nl","brand:wikidata":"Q131984002","check_date":"2025-11-17","email":"utrecht-westerdijk@sportcity.nl","leisure":"fitness_centre","name":"SportCity","old_name":"Fit For Free","opening_hours":"Mo-Fr 06:00-23:00; Sa-Su 08:00-18:00","source":"BAG","source:date":"2014-02-11","website":"https://www.sportcity.nl/utrecht/oudenoord"},"geometry":{"type":"Point","coordinates":[5.1109774,52.0989974]}},{"type":"Feature","properties":{"addr:city":"Utrecht","addr:housenumber":"41","addr:postcode":"3511AC","addr:street":"Oudegracht","leisure":"fitness_centre","name":"De workout","opening_hours":"Mo-Th 07:00-22:30; Fr 07:00-21:00; Sa 09:00-20:00; Su 09:00-18:00","phone":"+31 30 232 2312","source":"BAG","source:date":"2014-02-11","sport":"fitness;exercise;running","website":"https://www.deworkout.nl"},"geometry":{"type":"Point","coordinates":[5.1162861,52.0951024]}},{"type":"Feature","properties":{"addr:city":"Utrecht","addr:housenumber":"52","addr:postcode":"3521TM","addr:street":"Van der Goesstraat","leisure":"fitness_centre","name":"Newstyle","source":"BAG","source:date":"2014-02-11"},"geometry":{"type":"Point","coordinates":[5.1118748,52.0837131]}},{"type":"Feature","properties":{"addr:city":"Utrecht","addr:housenumber":"209","addr:postcode":"3521BN","addr:street":"Croeselaan","check_date":"2026-04-10","leisure":"fitness_centre","name":"Yoga Moves FLY","old_name":"BODY&MIND","source":"BAG","source:date":"2014-02-11","sport":"yoga","toilets:wheelchair":"no","website":"https://www.yogamoves.nl/fly","wheelchair":"limited"},"geometry":{"type":"Point","coordinates":[5.1094921,52.0837445]}},{"type":"Feature","properties":{"addr:city":"Utrecht","addr:housenumber":"5","addr:postcode":"3521EX","addr:street":"Heycopplein","leisure":"sports_centre","name":"Sporthal UKV de Halter","phone":"+31 30 293 2705","source":"BAG","source:date":"2014-02-11","sport":"fitness","website":"https://www.dehalter.com/","wheelchair":"no"},"geometry":{"type":"Point","coordinates":[5.1119604,52.0794993]}},{"type":"Feature","properties":{"addr:city":"Utrecht","addr:housenumber":"2","addr:postcode":"3531HW","addr:street":"Van Imhoffstraat","fee":"yes","leisure":"sports_centre","name":"Gymzaal van Imhoffstraat","opening_hours":"08:00-23:00","operator":"Gemeente Utrecht","operator:type":"government","source":"BAG","source:date":"2014-02-11","sport":"basketball;volleyball;badminton","toilets:wheelchair":"no","website":"https://asp5.lvp.nl/amisweb/utrecht/amis1/amis.php?action=objinfo&obj_id=1000000589","wheelchair":"limited","wheelchair:description":"Voor helling (15 cm hoog, 1 m lang) met drempel 5 cm."},"geometry":{"type":"Point","coordinates":[5.0952999,52.0917098]}},{"type":"Feature","properties":{"addr:city":"Utrecht","addr:housenumber":"254","addr:postcode":"3531CS","addr:street":"Kanaalstraat","club":"sport","leisure":"fitness_centre","name":"Base For Stability","source":"BAG","source:date":"2014-02-11","sport":"yoga;fitness","website":"https://baseforstability.nl/"},"geometry":{"type":"Point","coordinates":[5.093568,52.0905556]}},{"type":"Feature","properties":{"addr:city":"Utrecht","addr:housenumber":"57","addr:postcode":"3533GH","addr:street":"Händelstraat","email":"ooginal@idocommit.nl","leisure":"fitness_centre","level":"0","name":"COMMIT Oog in Al","opening_hours":"24/7","phone":"+31 30 204 0244","source":"BAG","source:date":"2014-02-11","website":"https://www.commit-i-do.com/locaties/oog-in-al/"},"geometry":{"type":"Point","coordinates":[5.0858859,52.0863919]}},{"type":"Feature","properties":{"addr:city":"Utrecht","addr:housenumber":"9","addr:postcode":"3533KH","addr:street":"Kennedylaan","leisure":"sports_centre","name":"Nationaal Denksportcentrum Den Hommel","source":"BAG","source:date":"2014-02-11","website":"https://www.ndcdenhommel.nl/"},"geometry":{"type":"Point","coordinates":[5.0823331,52.0801693]}},{"type":"Feature","properties":{"addr:city":"Utrecht","addr:housenumber":"75H","addr:postcode":"3534AR","addr:street":"Vlampijpstraat","check_date":"2025-11-08","check_date:opening_hours":"2025-11-08","email":"info@jimmysgym.nl","leisure":"sports_centre","name":"Jimmy's Gym","opening_hours":"Mo,We 10:00-13:00,16:00-22:00; Tu,Th 18:00-22:00; Fr 10:00-13:00,18:00-22:00; Sa 10:00-13:00","source":"BAG","source:date":"2014-02-11","sport":"boxing;kickboxing;martial_arts"},"geometry":{"type":"Point","coordinates":[5.0846068,52.1049376]}},{"type":"Feature","properties":{"addr:city":"Utrecht","addr:housenumber":"79","addr:postcode":"3534AR","addr:street":"Vlampijpstraat","check_date":"2025-11-08","check_date:opening_hours":"2025-11-08","leisure":"sports_centre","name":"All Inn Fitness","opening_hours":"Mo,We 07:30-23:00; Tu 08:30-23:00; Th 08:30-22:00; Fr 07:30-22:00; Sa-Su 09:00-16:00","source":"BAG","source:date":"2014-02-11","website":"https://allinnfitness.nl"},"geometry":{"type":"Point","coordinates":[5.0848999,52.1047617]}},{"type":"Feature","properties":{"addr:city":"Utrecht","addr:housenumber":"6","addr:postcode":"3527XL","addr:street":"Van Bijnkershoeklaan","leisure":"sports_centre","name":"Gymzaal","source":"BAG","source:date":"2014-02-11","toilets:wheelchair":"no","wheelchair":"no","wheelchair:description":"Bordes met traptreden 2 x 20 cm + drempel ca 10 cm. Binnen overstapbanken met weinig manoeuvreerruimte."},"geometry":{"type":"Point","coordinates":[5.0975609,52.0803693]}},{"type":"Feature","properties":{"addr:city":"De Meern","addr:housenumber":"26","addr:postcode":"3454PM","addr:street":"Strijkviertel","leisure":"fitness_centre","name":"Yogapoint Utrecht – Leidsche Rijn","source":"BAG","source:date":"2014-02-11","website":"https://yogapoint.nl/"},"geometry":{"type":"Point","coordinates":[5.0601812,52.081158]}},{"type":"Feature","properties":{"addr:city":"Utrecht","addr:housenumber":"704","addr:postcode":"3526WP","addr:street":"Europaplein","brand":"Basic-Fit","brand:wikidata":"Q40165577","brand:wikipedia":"nl:Basic-Fit","check_date:opening_hours":"2025-04-23","leisure":"fitness_centre","name":"Basic-Fit","opening_hours":"Mo-Fr 07:00-22:30, Sa-Su 09:00-16:00","phone":"+31 23 808 0888","source":"BAG","source:date":"2014-02-11","sport":"fitness;weightlifting","website":"https://www.basic-fit.com/nl-nl/clubs/basic-fit-utrecht-europaplein-a2a3c5e02adf4583935424b04b03e640.html"},"geometry":{"type":"Point","coordinates":[5.109158,52.0672748]}},{"type":"Feature","properties":{"addr:city":"Utrecht","addr:housenumber":"598","addr:postcode":"3544EA","addr:street":"Verlengde Houtrakgracht","leisure":"sports_centre","name":"Gymzaal Parkwijk","toilets:wheelchair":"yes","website":"https://www.sportstad-utrecht.nl/plaats/gymzaal-verlengde-houtrakgracht/","wheelchair":"yes"},"geometry":{"type":"Point","coordinates":[5.053307,52.0873148]}},{"type":"Feature","properties":{"addr:city":"Utrecht","addr:housenumber":"21","addr:postcode":"3543AR","addr:street":"Middenwetering","brand":"Basic-Fit","brand:wikidata":"Q40165577","brand:wikipedia":"nl:Basic-Fit","leisure":"fitness_centre","name":"Basic-Fit","source":"BAG","source:date":"2014-03-24"},"geometry":{"type":"Point","coordinates":[5.0520652,52.1062216]}},{"type":"Feature","properties":{"addr:city":"Utrecht","addr:housenumber":"10A","addr:postcode":"3542AC","addr:street":"Elektronweg","climbing:boulder":"yes","climbing:toprope":"no","email":"info@boulderhalenergiehaven.nl","indoor":"yes","leisure":"sports_centre","name":"Boulderhal Energiehaven","opening_hours":"Mo-Fr 08:30-23:00; Sa-Su 08:30-22:00","phone":"+31 30 307 5750","source":"BAG","source:date":"2014-03-24","sport":"climbing","website":"https://www.boulderhalenergiehaven.nl/"},"geometry":{"type":"Point","coordinates":[5.0709044,52.099977]}},{"type":"Feature","properties":{"addr:city":"Maarssen","addr:housenumber":"33","addr:postcode":"3602AA","addr:street":"Oostwaard","leisure":"sports_centre","name":"Paardensportvereniging Marsua","source":"BAG","source:date":"2014-05-07","sport":"equestrian","website":"https://marsua.com/"},"geometry":{"type":"Point","coordinates":[5.0535139,52.1310646]}},{"type":"Feature","properties":{"addr:city":"Nieuwegein","addr:housenumber":"7","addr:postcode":"3437KB","addr:street":"Aert de Gelderhage","leisure":"sports_centre","name":"Sporthal Galecop","source":"BAG","source:date":"2014-08-07"},"geometry":{"type":"Point","coordinates":[5.0824483,52.0493641]}},{"type":"Feature","properties":{"addr:city":"Nieuwegein","addr:housenumber":"12","addr:postcode":"3438LC","addr:street":"Blokhoeve","climbing:boulder":"yes","climbing:length:max":"17","climbing:sport":"yes","email":"nieuwegein@mountain-network.nl","fee":"yes","indoor":"yes","leisure":"sports_centre","name":"Mountain Network","opening_hours":"Mo-Fr 13:00-23:00; Sa 09:00-22:00; Su 10:00-22:00","phone":"+31 88 123 6910","source":"BAG","source:date":"2014-08-07","sport":"climbing","website":"https://mountain-network.nl/klimcentra/locaties/klimhal-nieuwegein/"},"geometry":{"type":"Point","coordinates":[5.0917806,52.0465338]}},{"type":"Feature","properties":{"addr:city":"Nieuwegein","addr:housenumber":"2B","addr:postcode":"3438LC","addr:street":"Blokhoeve","branch":"Nieuwegein","brand":"SportCity","brand:website":"https://www.sportcity.nl","brand:wikidata":"Q131984002","leisure":"fitness_centre","name":"SportCity","old_name":"Fit For Free","opening_hours":"Mo-Fr 07:00-23:00; Sa-Su 08:00-18:00","source":"BAG","source:date":"2014-08-07","website":"https://www.sportcity.nl/nieuwegein"},"geometry":{"type":"Point","coordinates":[5.0926788,52.0467984]}},{"type":"Feature","properties":{"addr:city":"Nieuwegein","addr:housenumber":"34","addr:postcode":"3439MK","addr:street":"Rond het Fort","check_date":"2026-04-10","facebook":"devoltreffer.zwezerijnen","leisure":"fitness_centre","name":"De Voltreffer","source":"BAG","source:date":"2014-08-08","sport":"boxing; judo; teakwondo","website":"https://www.devoltreffer.com"},"geometry":{"type":"Point","coordinates":[5.1026993,52.040113]}},{"type":"Feature","properties":{"addr:city":"Groenekan","addr:housenumber":"21","addr:postcode":"3737MP","addr:street":"Ruigenhoeksedijk","leisure":"sports_centre","name":"Fysio Fitness Visscher","opening_hours":"Mo-Th 07:00-22:00, Fr 07:00-21:00; Sa-Su 09:00-13:00","source":"BAG","source:date":"2014-08-07","sport":"fitness","website":"https://ffvisscher.nl/"},"geometry":{"type":"Point","coordinates":[5.1415865,52.1257383]}},{"type":"Feature","properties":{"addr:city":"Groenekan","addr:housenumber":"517","addr:postcode":"3737BG","addr:street":"Koningin Wilhelminaweg","leisure":"sports_centre","name":"Zwembad Blauwkapel","source":"BAG","source:date":"2014-08-07","sport":"swimming","website":"https://www.optisport.nl/blauwkapel"},"geometry":{"type":"Point","coordinates":[5.1422911,52.1208291]}},{"type":"Feature","properties":{"addr:city":"Bilthoven","addr:housenumber":"3","addr:postcode":"3723BA","addr:street":"Kees Boekelaan","leisure":"fitness_centre","name":"Sportcentrum Kees","opening_hours":"Mo-Th 08:00-22:00; Fr-Su 08:00-16:00","source":"BAG","source:date":"2014-08-07","sport":"fitness;padel;tennis;squash","website":"https://sportcentrumkees.nl/"},"geometry":{"type":"Point","coordinates":[5.1976399,52.1348707]}},{"type":"Feature","properties":{"addr:city":"Groenekan","addr:housenumber":"43","addr:postcode":"3737AV","addr:street":"Copijnlaan","leisure":"sports_centre","name":"Tenniscentrum Groenekan","source":"BAG","source:date":"2014-08-07","sport":"tennis","surface":"concrete","website":"https://www.tcgroenekan.nl/"},"geometry":{"type":"Point","coordinates":[5.148802,52.1212591]}},{"type":"Feature","properties":{"addr:city":"Bilthoven","addr:housenumber":"8A","addr:postcode":"3723BA","addr:street":"Kees Boekelaan","leisure":"sports_centre","source":"BAG","source:date":"2014-08-07","sport":"tennis"},"geometry":{"type":"Point","coordinates":[5.1973397,52.1366811]}},{"type":"Feature","properties":{"addr:city":"De Bilt","addr:housenumber":"187","addr:postcode":"3731JH","addr:street":"Hessenweg","leisure":"fitness_centre","name":"Mika","source":"BAG","source:date":"2014-08-08","sport":"yoga","website":"https://mikadebilt.nl"},"geometry":{"type":"Point","coordinates":[5.1826046,52.1122483]}},{"type":"Feature","properties":{"addr:city":"De Bilt","addr:housenumber":"4","addr:postcode":"3732GS","addr:street":"Kapelweg","leisure":"fitness_centre","name":"Allround Gym","source":"BAG","source:date":"2014-08-08","sport":"boxing;yoga;spinning;fitness"},"geometry":{"type":"Point","coordinates":[5.1836945,52.1039985]}},{"type":"Feature","properties":{"addr:city":"De Bilt","addr:housenumber":"42","addr:postcode":"3732EV","addr:street":"Molenkamp","leisure":"sports_centre","name":"JKE Sports","source":"BAG","source:date":"2014-08-08","sport":"martial_arts;fitness","website":"https://jkesports.nl/"},"geometry":{"type":"Point","coordinates":[5.1811346,52.1081202]}},{"type":"Feature","properties":{"addr:city":"Bilthoven","addr:housenumber":"123","addr:postcode":"3721BC","addr:street":"Leyenseweg","branch":"Bilthoven","brand":"SportCity","brand:website":"https://www.sportcity.nl","brand:wikidata":"Q131984002","leisure":"fitness_centre","name":"SportCity","opening_hours":"Mo-Fr 07:00-23:00; Sa-Su 08:00-18:00","source":"BAG","source:date":"2014-08-08","website":"https://www.sportcity.nl/bilthoven"},"geometry":{"type":"Point","coordinates":[5.1902074,52.1251996]}},{"type":"Feature","properties":{"addr:city":"De Bilt","addr:housenumber":"161","addr:postcode":"3731AE","addr:street":"Groenekanseweg","leisure":"sports_centre","name":"LTV Meijenhagen","source":"BAG","source:date":"2014-08-08","sport":"tennis","website":"https://www.meijenhagen.nl/"},"geometry":{"type":"Point","coordinates":[5.174558,52.1159102]}},{"type":"Feature","properties":{"addr:city":"Bilthoven","addr:housenumber":"8","addr:postcode":"3721EA","addr:street":"Talinglaan","email":"bestuur@tv-toss.nl","leisure":"sports_centre","name":"TV Toss","source":"BAG","source:date":"2014-08-08","sport":"tennis","website":"https://tv-toss.nl/"},"geometry":{"type":"Point","coordinates":[5.1873365,52.1253277]}},{"type":"Feature","properties":{"addr:city":"Utrecht","addr:housenumber":"2","addr:postcode":"3526AA","addr:street":"Vrieslantlaan","climbing":"bouldering","climbing:boulder":"yes","climbing:toprope":"no","climbing:traditional":"no","email":"info@boulderhalzuidhaven.nl","indoor":"yes","leisure":"sports_centre","name":"Boulderhal Zuidhaven","phone":"+31 30 307 8440","source":"BAG;local knowledge","source:date":"2014-08-17","sport":"climbing","website":"https://www.boulderhalzuidhaven.nl/"},"geometry":{"type":"Point","coordinates":[5.1044248,52.064597]}},{"type":"Feature","properties":{"addr:city":"Utrecht","addr:housenumber":"487","addr:postcode":"3526GH","addr:street":"Marco Pololaan","description":"Gymzaal school","leisure":"sports_centre","source":"BAG","source:date":"2014-08-17","wheelchair":"limited","wheelchair:description":"Drempel 5 cm bij entree. In kleedkamers zijn toiletten waar een rolstoel in kan staan."},"geometry":{"type":"Point","coordinates":[5.099389,52.065775]}},{"type":"Feature","properties":{"addr:city":"Utrecht","addr:housenumber":"249A","addr:postcode":"3523EJ","addr:street":"Smaragdplein","email":"info@thefitnessstudio.nl","leisure":"fitness_centre","name":"The Fitness Studio","opening_hours":"Mo 16:00-21:00; Tu 17:00-20:00; We 09:00-10:00,18:00-21:00; Th 17:00-21:00; Fr 09:00-10:00; Sa 09:00-11:00","phone":"+31 30 604 19 58","source":"BAG","source:date":"2014-08-22","website":"https://thefitnessstudio.nl/utrecht/"},"geometry":{"type":"Point","coordinates":[5.1230981,52.0726374]}},{"type":"Feature","properties":{"addr:city":"Utrecht","addr:housenumber":"28","addr:postcode":"3523TL","addr:street":"Hoogravenseweg","email":"hoograven@newstylehealthcenters.com","leisure":"sports_centre","leisure_1":"fitness","name":"Newstyle Hoograven","opening_hours":"Mo-Su 06:00-23:00","phone":"+31 88 1661024","source":"BAG","source:date":"2014-08-22","website":"https://newstylehealthcenters.com/sportschool-hoograven-utrecht"},"geometry":{"type":"Point","coordinates":[5.1195902,52.0700978]}},{"type":"Feature","properties":{"leisure":"sports_centre","name":"Sporthal Hoograven","wheelchair":"yes"},"geometry":{"type":"Point","coordinates":[5.116988,52.0679173]}},{"type":"Feature","properties":{"addr:city":"Utrecht","addr:housenumber":"23","addr:postcode":"3542AX","addr:street":"Otto Hahnweg","check_date":"2026-01-18","check_date:opening_hours":"2026-01-18","email":"info@snowsportcenter.nl","leisure":"sports_centre","name":"SnowSportCenter Utrecht","opening_hours":"Mo,We,Th,Fr 09:00-23:00; Tu 14:00-23:00; Sa-Su 09:00-20:00","phone":"+31 30 303 0013","source":"BAG","source:date":"2014-08-24","sport":"skiing","website":"https://www.snowsportcenter.nl"},"geometry":{"type":"Point","coordinates":[5.0545391,52.1175647]}},{"type":"Feature","properties":{"addr:city":"Utrecht","addr:housenumber":"5A","addr:postcode":"3555GS","addr:street":"Prof. H. Bavinckstraat","check_date":"2025-10-25","leisure":"sports_centre","name":"Gymzaal Professor Bavinckstraat 5A","opening_hours":"Mo-Su 08:00-23:00","operator":"Gemeente Utrecht","source":"BAG","source:date":"2014-08-25","sport":"basketball;volleyball","toilets:wheelchair":"no","website":"https://www.utrecht.nl/wonen-en-leven/vrije-tijd/sport/sportlocaties/sportzalen-en-gymzalen-huren","website:booking":"https://asp5.lvp.nl/amisweb/utrecht/amis1/amis.php?action=objinfo&obj_id=1000000569","wheelchair":"no"},"geometry":{"type":"Point","coordinates":[5.0734166,52.1193243]}},{"type":"Feature","properties":{"addr:city":"Utrecht","addr:housenumber":"680","addr:postcode":"3555EZ","addr:street":"Burgemeester Norbruislaan","leisure":"sports_centre","name":"Sporthal Zuilen","toilets:wheelchair":"yes","wheelchair":"yes","wheelchair:description":"Lift 1,1 x 2 m."},"geometry":{"type":"Point","coordinates":[5.06464,52.1227219]}},{"type":"Feature","properties":{"addr:city":"Utrecht","addr:housenumber":"151","addr:postcode":"3565CE","addr:street":"Mississippidreef","check_date":"2026-02-06","email":"info@vechtsebanen.nl","fee":"yes","leisure":"sports_centre","name":"Sports & Businesscampus De Vechtsebanen","phone":"+31 30 262 7878","source":"BAG","source:date":"2014-08-25","sport":"ice_skating;ice_hockey","website":"https://vechtsebanen.nl"},"geometry":{"type":"Point","coordinates":[5.0862837,52.1236774]}},{"type":"Feature","properties":{"addr:city":"Utrecht","addr:housenumber":"161","addr:postcode":"3565CE","addr:street":"Mississippidreef","leisure":"fitness_centre","name":"David Lloyd","source":"BAG","source:date":"2014-08-25","website":"https://www.davidlloyd.nl/nl-nl/clubs/utrecht/","wheelchair":"limited"},"geometry":{"type":"Point","coordinates":[5.0866711,52.1222323]}},{"type":"Feature","properties":{"addr:city":"Utrecht","addr:housenumber":"80","addr:postcode":"3565AD","addr:street":"Franciscusdreef","brand":"Basic-Fit","brand:wikidata":"Q40165577","leisure":"fitness_centre","name":"Basic-Fit","phone":"+31 23 890 1750","source":"BAG","source:date":"2014-08-25","website":"https://www.basic-fit.nl"},"geometry":{"type":"Point","coordinates":[5.0936684,52.1258284]}},{"type":"Feature","properties":{"addr:city":"Utrecht","addr:housenumber":"2","addr:postcode":"3564SC","addr:street":"Bangkokdreef","leisure":"sports_centre","source":"BAG","source:date":"2014-08-25","toilets:wheelchair":"no","wheelchair":"no","wheelchair:description":"Traptrede ca 20 cm +Drempel ca 12 cm."},"geometry":{"type":"Point","coordinates":[5.1047974,52.1233644]}},{"type":"Feature","properties":{"addr:city":"Utrecht","addr:housenumber":"10","addr:postcode":"3563AX","addr:street":"Paranádreef","check_date":"2025-11-08","check_date:opening_hours":"2025-11-08","leisure":"sports_centre","name":"Zwembad De Kwakel","opening_hours":"Mo-Th 07:00-22:00; Fr 07:00-18:00; Sa 08:00-17:00; Su 09:00-16:00; PH off","source":"BAG","source:date":"2014-08-25","sport":"swimming","toilets:wheelchair":"yes","website":"https://www.utrecht.nl/wonen-en-leven/vrije-tijd/zwembaden/zwembad-de-kwakel","wheelchair":"yes","wheelchair:description":"Drempel ca 4 cm. Lift 1,1 x 1,4 m"},"geometry":{"type":"Point","coordinates":[5.1032869,52.1156203]}},{"type":"Feature","properties":{"addr:city":"Utrecht","addr:housenumber":"203","addr:postcode":"3563VS","addr:street":"Rio de Janeirodreef","check_date":"2025-11-28","contact:phone":"+31 30 662 8229","email":"info@svvechtzoom.nl","leisure":"sports_centre","name":"Sportpark Vechtzoom","source":"BAG","source:date":"2014-08-25","sport":"soccer;ultimate_frisbee","toilets:wheelchair":"no","website":"https://www.svvechtzoom.nl/","wheelchair":"limited","wheelchair:description":"Drempel ca 5 cm."},"geometry":{"type":"Point","coordinates":[5.1004641,52.1137169]}},{"type":"Feature","properties":{"addr:city":"Utrecht","addr:housenumber":"124","addr:postcode":"3554GJ","addr:street":"Prinses Margrietstraat","leisure":"sports_centre","name":"Gymlokaal Prinses Margrietstraat","source":"BAG","source:date":"2014-08-25","toilets:wheelchair":"yes","wheelchair":"yes","wheelchair:description":"Toilet 2,2 x 2,2 m."},"geometry":{"type":"Point","coordinates":[5.0860067,52.1143822]}},{"type":"Feature","properties":{"addr:city":"Utrecht","addr:housenumber":"45","addr:postcode":"3553SL","addr:street":"St.-Willibrordusstraat","check_date":"2025-11-08","leisure":"sports_centre","name":"Gymzaal Willibrordusstraat 45","opening_hours":"Mo-Su 08:00-23:00","operator":"Gemeente Utrecht","reservation":"yes","reservation:website":"https://asp5.lvp.nl/amisweb/utrecht/amis1/amis.php?action=locinfo&loc_id=233","source":"BAG","source:date":"2014-08-25","sport":"basketball;volleyball;badminton","toilets:wheelchair":"no","website":"https://www.utrecht.nl/wonen-en-leven/vrije-tijd/sport/sportlocaties/sportzalen-en-gymzalen-huren","website:booking":"https://asp5.lvp.nl/amisweb/utrecht/amis1/amis.php?action=objinfo&obj_id=1000000585","wheelchair:description":"Drempel ca 12 cm."},"geometry":{"type":"Point","coordinates":[5.0872281,52.109654]}},{"type":"Feature","properties":{"addr:city":"Utrecht","addr:housenumber":"640","addr:postcode":"3555HX","addr:street":"Amsterdamsestraatweg","leisure":"fitness_centre","name":"Iron House","phone":"+31 30 245 1667","source":"BAG","source:date":"2014-08-25","sport":"fitness;powerlifting;olympic_weightlifting","website":"https://ironhouseco.com"},"geometry":{"type":"Point","coordinates":[5.0798495,52.112131]}},{"type":"Feature","properties":{"addr:city":"Utrecht","addr:housenumber":"3","addr:postcode":"3584CT","addr:street":"Uppsalalaan","contact:facebook":"sportcentrumolympos","contact:instagram":"olymposutrecht","email":"info@olympos.nl","fee":"yes","leisure":"sports_centre","name":"Sportcentrum Olympos","opening_hours":"Mo-Fr 07:00-23:30; Sa-Su 09:00-19:00","payment:debit_cards":"yes","phone":"+31 30 2534471","source":"BAG","source:date":"2014-08-25","website":"https://www.olympos.nl/"},"geometry":{"type":"Point","coordinates":[5.1751547,52.091278]}},{"type":"Feature","properties":{"addr:city":"Utrecht","addr:housenumber":"13","addr:postcode":"3515XW","addr:street":"P.C. Borstraat","club":"sport","leisure":"fitness_centre","name":"Base For Stability","source":"BAG","source:date":"2014-08-25","sport":"yoga;fitness","website":"https://baseforstability.nl/"},"geometry":{"type":"Point","coordinates":[5.1220323,52.1045496]}},{"type":"Feature","properties":{"addr:city":"Utrecht","addr:housenumber":"28","addr:postcode":"3515EB","addr:street":"Samuel van Houtenstraat","leisure":"fitness_centre","name":"Heart Yoga","source":"BAG","source:date":"2014-08-25","sport":"yoga","website":"https://www.heartyoga.nl/"},"geometry":{"type":"Point","coordinates":[5.1161011,52.1041316]}},{"type":"Feature","properties":{"addr:city":"Utrecht","addr:housenumber":"5","addr:postcode":"3515AG","addr:street":"Willem Arntszkade","leisure":"sports_centre","name":"Sportcentrum Verbon","source":"BAG","source:date":"2014-08-25","sport":"martial_arts","website":"https://www.verbon.biz/"},"geometry":{"type":"Point","coordinates":[5.1184194,52.1007373]}},{"type":"Feature","properties":{"addr:city":"Utrecht","addr:housenumber":"4A","addr:postcode":"3573PT","addr:street":"Ariënslaan","leisure":"sports_centre","name":"De Utrechtse manege","source":"BAG","source:date":"2014-08-25","sport":"equestrian","website":"https://www.utrechtsemanege.nl"},"geometry":{"type":"Point","coordinates":[5.1452615,52.1012964]}},{"type":"Feature","properties":{"addr:city":"Utrecht","addr:housenumber":"90","addr:postcode":"3573PS","addr:street":"Biltsestraatweg","leisure":"sports_centre","name":"Manege Groenesteyn","source":"BAG","source:date":"2014-08-25","website":"https://manegegroenesteyn.nl/"},"geometry":{"type":"Point","coordinates":[5.1529051,52.0984843]}},{"type":"Feature","properties":{"leisure":"sports_centre","name":"Sporting '70","sport":"soccer","website":"https://www.sporting70.nl/","wikidata":"Q14942541","wikipedia":"nl:Sporting '70"},"geometry":{"type":"Point","coordinates":[5.1502218,52.105227]}},{"type":"Feature","properties":{"leisure":"sports_centre","name":"USV Hercules","website":"https://www.usvhercules.nl","wikidata":"Q4489033"},"geometry":{"type":"Point","coordinates":[5.1482509,52.1074374]}},{"type":"Feature","properties":{"addr:city":"Utrecht","addr:housenumber":"6","addr:postcode":"3571XS","addr:street":"Wevelaan","leisure":"sports_centre","source":"BAG","source:date":"2014-08-25","toilets:wheelchair":"no","wheelchair":"limited","wheelchair:description":"Ontbreekt een oprit. Trottoir bestaat uit losliggende scheve tegels. Binnen drempel van ca 4cm. Nauwelijks manoeuvreerruimte."},"geometry":{"type":"Point","coordinates":[5.1400354,52.1053856]}},{"type":"Feature","properties":{"addr:city":"Utrecht","addr:housenumber":"51A","addr:postcode":"3571EL","addr:street":"Prof. van Bemmelenlaan","leisure":"sports_centre","name":"Gymzaal Prof. van Bemmelenlaan","phone":"+31 30 286 26 02","source":"BAG","source:date":"2014-08-25"},"geometry":{"type":"Point","coordinates":[5.1286532,52.1093719]}},{"type":"Feature","properties":{"addr:city":"Utrecht","addr:housenumber":"25","addr:postcode":"3562GG","addr:street":"Schooneggendreef","leisure":"sports_centre","name":"Gymzaal","source":"BAG","source:date":"2014-08-25","toilets:wheelchair":"no","wheelchair":"limited"},"geometry":{"type":"Point","coordinates":[5.1188277,52.1204309]}},{"type":"Feature","properties":{"addr:city":"Utrecht","addr:housenumber":"27L","addr:postcode":"3562GG","addr:street":"Schooneggendreef","branch":"Utrecht Overvecht","brand":"SportCity","brand:website":"https://www.sportcity.nl","brand:wikidata":"Q131984002","email":"utrecht-overvecht@sportcity.nl","leisure":"fitness_centre","name":"SportCity","opening_hours":"Mo-Fr 07:00-23:00; Sa-Su 08:00-18:00","source":"BAG","source:date":"2014-08-25","website":"https://www.sportcity.nl/utrecht/overvecht"},"geometry":{"type":"Point","coordinates":[5.1180997,52.1212026]}},{"type":"Feature","properties":{"addr:city":"Utrecht","addr:housenumber":"27","addr:postcode":"3562GG","addr:street":"Schooneggendreef","leisure":"sports_centre","name":"Sporthal De Dreef","source":"BAG","source:date":"2018-09-02","wheelchair":"yes"},"geometry":{"type":"Point","coordinates":[5.1186457,52.1211967]}},{"type":"Feature","properties":{"addr:city":"Utrecht","addr:housenumber":"130","addr:postcode":"3561VL","addr:street":"Taagdreef","email":"info@squashutrecht.nl","facebook":"https://www.facebook.com/squash.utrecht","leisure":"sports_centre","name":"Squash Utrecht","opening_hours":"Mo-Fr 09:00-00:00; Sa-Su 09:00-22:00","phone":"+31 30 261 2811","source":"BAG","source:date":"2014-08-25","sport":"squash","website":"https://www.squashutrecht.nl/"},"geometry":{"type":"Point","coordinates":[5.1137755,52.1087895]}},{"type":"Feature","properties":{"addr:city":"Utrecht","addr:housenumber":"46","addr:postcode":"3561GM","addr:street":"Arnodreef","check_date":"2026-02-01","email":"overvecht@newstylehealthcenters.com","leisure":"fitness_centre","name":"Newstyle Overvecht","opening_hours":"24/7","phone":"+31 88 1661 031","source":"BAG","source:date":"2014-08-25","sport":"fitness","website":"https://newstylehealthcenters.com/sportschool-overvecht-utrecht/"},"geometry":{"type":"Point","coordinates":[5.1237618,52.1116928]}},{"type":"Feature","properties":{"addr:city":"Utrecht","addr:housenumber":"3","addr:postcode":"3584AD","addr:street":"Weg naar Rhijnauwen","contact:facebook":"https://www.facebook.com/ZwembadKrommerijn/","contact:instagram":"https://www.instagram.com/zwembaddekrommerijn/","leisure":"sports_centre","name":"Zwembad de Krommerijn","source":"BAG","source:date":"2015-03-03","sport":"swimming","website":"https://zwembaddekrommerijn.nl/"},"geometry":{"type":"Point","coordinates":[5.157807,52.0828796]}},{"type":"Feature","properties":{"addr:city":"Utrecht","addr:housenumber":"2","addr:postcode":"3552XE","addr:street":"Loevenhoutsedijk","addr:unit":"A","leisure":"sports_centre","name":"Sportpark Loevenhoutsedijk","opening_hours":"Mo-Su 08:30-22:30","source":"BAG","source:date":"2014-08-25","website":"https://www.utrecht.nl/wonen-en-leven/vrije-tijd/sport/sportlocaties/sporthallen/sporthal-loevenhout"},"geometry":{"type":"Point","coordinates":[5.1123701,52.1078121]}},{"type":"Feature","properties":{"addr:city":"Bunnik","addr:housenumber":"25","addr:postcode":"3981GD","addr:street":"Camminghalaan","leisure":"sports_centre","name":"Gymnastiekzaal Rijnzaal","opening_hours":"by appointment","source":"BAG","source:date":"2015-12-23","wheelchair":"limited"},"geometry":{"type":"Point","coordinates":[5.1954538,52.0698178]}},{"type":"Feature","properties":{"addr:city":"Utrecht","addr:housenumber":"7","addr:postcode":"3533KH","addr:street":"Kennedylaan","leisure":"sports_centre","name":"TC Domstad","sport":"tennis","wheelchair:description":"Entree drempel ca 5 cm. Verdieping niet bereikbaar."},"geometry":{"type":"Point","coordinates":[5.0824564,52.0811653]}},{"type":"Feature","properties":{"climbing:sport":"yes","fee":"yes","indoor":"no","leisure":"sports_centre","name":"Kalymnos","sport":"climbing","wheelchair":"limited"},"geometry":{"type":"Point","coordinates":[5.1771337,52.0914021]}},{"type":"Feature","properties":{"addr:city":"Utrecht","addr:housenumber":"173","addr:postcode":"3513BV","addr:street":"Kaatstraat","check_date":"2025-11-24","club":"sport","email":"kaatstraat@equalyoga.com","leisure":"fitness_centre","name":"Equal yoga","source":"BAG","source:date":"2016-10-19","sport":"yoga","website":"https://www.equalyoga.com/studios/kaatstraat"},"geometry":{"type":"Point","coordinates":[5.1133979,52.0985127]}},{"type":"Feature","properties":{"addr:city":"Utrecht","addr:housenumber":"59","addr:postcode":"3513BV","addr:street":"Kaatstraat","check_date":"2025-11-24","check_date:opening_hours":"2025-11-24","email":"hello@rocyclestudios.com","leisure":"fitness_centre","name":"Rocycle","opening_hours":"Mo-Th 06:30-22:15; Fr 06:30-19:15; Sa 08:15-18:15; Su 08:30-19:15","source":"BAG","source:date":"2016-10-19","sport":"cycling","website":"https://rocyclestudios.com/studios/utrecht/utrecht-city"},"geometry":{"type":"Point","coordinates":[5.1126876,52.0982913]}},{"type":"Feature","properties":{"addr:city":"Utrecht","addr:housenumber":"94A","addr:postcode":"3533HH","addr:street":"Kanaalweg","leisure":"fitness_centre","name":"TrainMore","opening_hours":"Mo-Sa 09:00-21:00","source":"BAG","source:date":"2014-02-11","website":"https://trainmore.nl/clubs/ooginal"},"geometry":{"type":"Point","coordinates":[5.0879861,52.0893194]}},{"type":"Feature","properties":{"addr:city":"Utrecht","addr:housenumber":"121","addr:postcode":"3513BV","addr:street":"Kaatstraat","check_date":"2025-11-24","check_date:opening_hours":"2025-11-24","email":"info@bbbhealthboutique.nl","fitness_centre:for":"women","leisure":"fitness_centre","name":"bbb health boutique","opening_hours":"Mo-Th 07:45-13:00,16:45-21:30; Fr 07:45-15:30; Sa 07:45-14:30; Su 08:30-14:00","phone":"+31 88 644 0030","source":"BAG","source:date":"2017-01-08","website":"https://bbbhealthboutique.nl/bbb-utrecht/"},"geometry":{"type":"Point","coordinates":[5.1130904,52.0984154]}},{"type":"Feature","properties":{"addr:city":"Utrecht","addr:housenumber":"2","addr:postcode":"3513BK","addr:street":"Kaatstraat","leisure":"fitness_centre","name":"CK Health Center","personal_trainer":"yes","sauna":"infrared","source":"BAG","source:date":"2017-01-14","start_date":"1-3-2026","website":"https://ckhealthcenter.nl/"},"geometry":{"type":"Point","coordinates":[5.113572,52.0982927]}},{"type":"Feature","properties":{"addr:city":"Utrecht","addr:housenumber":"10D","addr:postcode":"3534BK","addr:street":"Locomotiefstraat","branch":"Utrecht","leisure":"sports_centre","name":"PadelCasa","operator":"PadelCasa","operator:website":"https://www.padelcasa.com","source":"BAG","source:date":"2017-01-17","sport":"padel","website":"https://www.padelcasa.com/pages/utrecht-home"},"geometry":{"type":"Point","coordinates":[5.0933768,52.0990534]}},{"type":"Feature","properties":{"brand":"Curves","brand:wikidata":"Q5196080","brand:wikipedia":"en:Curves International","leisure":"fitness_centre","name":"Curves","phone":"+31 30 293 7380","website":"https://curves.nl/"},"geometry":{"type":"Point","coordinates":[5.0974326,52.0935424]}},{"type":"Feature","properties":{"addr:city":"Utrecht","addr:housenumber":"4","addr:postcode":"3564XS","addr:street":"Pagodedreef","leisure":"sports_centre","name":"Gymzaal Pagodedreef","source":"BAG","source:date":"2017-03-29","toilets:wheelchair":"yes","wheelchair":"yes"},"geometry":{"type":"Point","coordinates":[5.1040042,52.1273102]}},{"type":"Feature","properties":{"addr:city":"Utrecht","addr:housenumber":"4B","addr:postcode":"3551EJ","addr:street":"2e Daalsedijk","check_date":"2025-12-23","email":"info@unscared.fitness","leisure":"fitness_centre","name":"UnScared CrossFit","phone":"+31 30 227 1612","source":"BAG","source:date":"2017-07-30","website":"https://www.unscared.fitness"},"geometry":{"type":"Point","coordinates":[5.1027307,52.0975705]}},{"type":"Feature","properties":{"addr:city":"Utrecht","addr:housenumber":"3","addr:postcode":"3512XG","addr:street":"Nicolaasdwarsstraat","leisure":"sports_centre","name":"Gymzaal (Nicolaasdwarsstraat)","toilets:wheelchair":"no","wheelchair":"yes"},"geometry":{"type":"Point","coordinates":[5.1249635,52.0826736]}},{"type":"Feature","properties":{"addr:city":"Utrecht","addr:housenumber":"3","addr:postcode":"3513AA","addr:street":"Amsterdamsestraatweg","leisure":"sports_centre","name":"Gymzaal (Amsterdamsestraatweg)","toilets:wheelchair":"no","wheelchair":"limited","wheelchair:description":"Drempel ca 4 cm."},"geometry":{"type":"Point","coordinates":[5.1092169,52.0958897]}},{"type":"Feature","properties":{"leisure":"sports_centre","name":"Gymzaal","toilets:wheelchair":"no","wheelchair":"no"},"geometry":{"type":"Point","coordinates":[5.1286915,52.0690808]}},{"type":"Feature","properties":{"addr:city":"Utrecht","addr:housenumber":"21-23","addr:postcode":"3527HS","addr:street":"Beneluxlaan","branch":"Utrecht Kanaleneiland","brand":"SportCity","brand:website":"https://www.sportcity.nl","brand:wikidata":"Q131984002","leisure":"fitness_centre","name":"SportCity","opening_hours":"Mo-Fr 07:00-23:00; Sa-Su 08:00-18:00","source":"BAG","source:date":"2018-09-01","website":"https://www.sportcity.nl/utrecht/kanaleneiland"},"geometry":{"type":"Point","coordinates":[5.0952293,52.0754014]}},{"type":"Feature","properties":{"addr:city":"Utrecht","addr:housenumber":"52","addr:postcode":"3534AS","addr:street":"Schaverijstraat","check_date":"2026-01-05","check_date:opening_hours":"2026-01-05","email":"info@boulderhalsterk.nl","leisure":"sports_centre","name":"Boulderhal Sterk Spoor","opening_hours":"Mo-Fr 09:00-23:00; Sa,Su 09:00-19:00","phone":"+31 30 737 0196","source":"BAG","source:date":"2018-09-03","sport":"climbing","website":"https://www.boulderhalsterk.nl"},"geometry":{"type":"Point","coordinates":[5.0827563,52.1051887]}},{"type":"Feature","properties":{"addr:city":"Utrecht","addr:housenumber":"78D","addr:postcode":"3571NJ","addr:street":"Obbinklaan","check_date:opening_hours":"2025-09-10","leisure":"fitness_centre","name":"LEF030","opening_hours":"Mo-Th 07:00-22:00, Fr 07:00-21:00, Sa-Su 08:00-16:00","phone":"+31 30 785 1206","source":"BAG","source:date":"2021-04-14","website":"https://lef-030.nl/"},"geometry":{"type":"Point","coordinates":[5.1353483,52.1063648]}},{"type":"Feature","properties":{"addr:city":"Utrecht","addr:housenumber":"22","addr:postcode":"3513BB","addr:street":"Weerdsingel W.Z.","leisure":"sports_centre","name":"Gymzaal Weerdsingel"},"geometry":{"type":"Point","coordinates":[5.111142,52.0962407]}},{"type":"Feature","properties":{"addr:city":"Utrecht","addr:housenumber":"10a","addr:postcode":"3512JR","addr:street":"Pieterskerkhof","leisure":"sports_centre","toilets:wheelchair":"no","wheelchair":"no","wheelchair:description":"Drempel ca 15 cm. Voordeur bestaat uit 2 smalle deuren (2 x 62 cm)."},"geometry":{"type":"Point","coordinates":[5.1253577,52.0912641]}},{"type":"Feature","properties":{"addr:city":"Utrecht","addr:housenumber":"45a","addr:postcode":"3533TE","addr:street":"Johan Wagenaarkade","leisure":"sports_centre","name":"Gymzaal","toilets:wheelchair":"yes","wheelchair":"no","wheelchair:description":"Drempel ca 10 cm."},"geometry":{"type":"Point","coordinates":[5.0804303,52.0874017]}},{"type":"Feature","properties":{"addr:city":"Utrecht","addr:housenumber":"2g","addr:postcode":"3581RX","addr:street":"Deken Roesstraat","leisure":"sports_centre","name":"Gymzaal","wheelchair":"yes"},"geometry":{"type":"Point","coordinates":[5.1335526,52.0946183]}},{"type":"Feature","properties":{"addr:city":"Utrecht","addr:housenumber":"2a","addr:postcode":"3572TJ","addr:street":"Oude Kerkstraat","leisure":"sports_centre","name":"Gymzaal","toilets:wheelchair":"no","wheelchair":"no","wheelchair:description":"Drempel ca 10 cm."},"geometry":{"type":"Point","coordinates":[5.1340121,52.0960934]}},{"type":"Feature","properties":{"addr:city":"Utrecht","addr:housenumber":"253","addr:postcode":"3532BJ","addr:street":"Cremerstraat","leisure":"sports_centre","name":"Gymzaal","toilets:wheelchair":"no","wheelchair":"yes"},"geometry":{"type":"Point","coordinates":[5.096341,52.0963314]}},{"type":"Feature","properties":{"addr:city":"Utrecht","addr:housenumber":"4","addr:postcode":"3552XE","addr:street":"Loevenhoutsedijk","leisure":"sports_centre","name":"SVE","source":"BAG","source:date":"2014-08-25","sport":"table_tennis","toilets:wheelchair":"yes","website":"https://ttvsve.nl/","wheelchair":"yes","wheelchair:description":"Helling ca 1 m hoog en ca 8 m lang. Binnen naar sporthal helling ca 60 cm hoog en ca 8 m lang."},"geometry":{"type":"Point","coordinates":[5.1112961,52.1076544]}},{"type":"Feature","properties":{"addr:full":"\"Theo Thijssenplein 30, 3555SJ Utrecht\"","leisure":"sports_centre","name":"USV Elinckwijk","toilets:wheelchair":"yes","wheelchair":"limited","wheelchair:description":"Steile helling zonder afrijbeveiliging ca 50 cm hoog, ca 3 m lang. Smal toilet."},"geometry":{"type":"Point","coordinates":[5.0673366,52.1202095]}},{"type":"Feature","properties":{"addr:city":"Utrecht","addr:housenumber":"3","addr:postcode":"3584AD","addr:street":"Weg naar Rhijnauwen","leisure":"sports_centre","name":"FeelingFit","sport":"fitness","toilets:wheelchair":"yes","wheelchair":"limited","wheelchair:description":"Drempel ca 5 cm. Lift 1,1 x 1,5 m."},"geometry":{"type":"Point","coordinates":[5.1575178,52.0829444]}},{"type":"Feature","properties":{"addr:city":"Bilthoven","addr:housenumber":"142A","addr:postcode":"3721WZ","addr:street":"Tweelingen","leisure":"sports_centre","name":"Irene Beach","source":"BAG","source:date":"2019-03-10","sport":"beachvolleyball","website":"https://irenebeach.nl/"},"geometry":{"type":"Point","coordinates":[5.1796002,52.1223972]}},{"type":"Feature","properties":{"addr:city":"Utrecht","addr:housenumber":"5","addr:postcode":"3541BH","addr:street":"Dirck Hoetweg","branch":"Utrecht Leidsche Rijn Centrum","brand":"SportCity","brand:website":"https://www.sportcity.nl","brand:wikidata":"Q131984002","leisure":"fitness_centre","name":"SportCity","old_name":"Fit For Free","opening_hours":"Mo-Fr 07:00-23:00; Sa-Su 08:00-21:00","sport":"gymnastics;fitness;yoga","website":"https://www.sportcity.nl/utrecht/leidsche-rijn-centrum"},"geometry":{"type":"Point","coordinates":[5.0591754,52.0979995]}},{"type":"Feature","properties":{"access":"private","addr:city":"Groenekan","addr:housenumber":"100","addr:postcode":"3737MN","addr:street":"Ruigenhoeksedijk","leisure":"sports_centre","name":"Zwembad De Kikker","private":"members","source":"BAG","source:date":"2019-10-19","sport":"swimming","website":"https://www.zwembaddekikker.nl/"},"geometry":{"type":"Point","coordinates":[5.1306667,52.1303188]}},{"type":"Feature","properties":{"addr:city":"Nieuwegein","addr:housenumber":"1","addr:postcode":"3439ZZ","addr:street":"Ravensewetering","designation":"waveboardcentre","email":"info@downunder.nl","leisure":"sports_centre","name":"Down Under","source":"BAG","source:date":"2019-10-28","sport":"multi","website":"https://www.downunder.nl/"},"geometry":{"type":"Point","coordinates":[5.1242534,52.0491356]}},{"type":"Feature","properties":{"addr:city":"De Meern","addr:housenumber":"5-6","addr:postcode":"3454PT","addr:street":"Molensteijn","check_date:opening_hours":"2022-03-02","leisure":"fitness_centre","name":"CrossFit Castellum","opening_hours":"Mo-Fr 08:00-21:30; Sa 09:00-14:00; Su 09:00-13:00","phone":"+31 6 39559276","sport":"crossfit;weightlifting;powerlifting;personal_training","website":"https://www.crossfitcastellum.com"},"geometry":{"type":"Point","coordinates":[5.0527345,52.0740112]}},{"type":"Feature","properties":{"addr:city":"Utrecht","addr:housenumber":"13","addr:postcode":"3527DK","addr:street":"Van Heuven Goedhartlaan","brand":"Basic-Fit","brand:wikidata":"Q40165577","check_date":"2026-02-25","check_date:opening_hours":"2026-02-25","leisure":"fitness_centre","name":"Basic-Fit","opening_hours":"24/7","source":"BAG","source:date":"2020-05-06","website":"https://www.basic-fit.com/nl-nl/clubs/basic-fit-utrecht-van-heuven-goedhartplein-24-7-11d3823df30f4072b0e66b9a96c8eb39.html"},"geometry":{"type":"Point","coordinates":[5.0913631,52.0794568]}},{"type":"Feature","properties":{"addr:city":"Utrecht","addr:housenumber":"104-106","addr:postcode":"3581LH","addr:street":"Oudwijkerdwarsstraat","email":"oudwijk@newstylehealthcenters.com","leisure":"fitness_centre","name":"Newstyle Healthcenters","opening_hours":"Mo-Fr 08:00-22:30; Sa,Su 09:00-16:00","phone":"+31 88 166 1027","sport":"fitness","website":"https://www.newstylehealthcenters.com"},"geometry":{"type":"Point","coordinates":[5.1345859,52.0877204]}},{"type":"Feature","properties":{"addr:city":"Utrecht","addr:housenumber":"9","addr:postcode":"3527KW","addr:street":"Overste den Oudenlaan","leisure":"fitness_centre","name":"Crossfit Domcity","sport":"crossfit","website":"https://crossfitdomcity.com/"},"geometry":{"type":"Point","coordinates":[5.0986981,52.082454]}},{"type":"Feature","properties":{"addr:city":"Utrecht","addr:housenumber":"46","addr:postcode":"3531VG","addr:street":"Groeneweg","leisure":"fitness_centre","name":"Dutch Gym","source":"BAG","source:date":"2017-01-17","sport":"fitness","website":"https://dutchgym.nl/"},"geometry":{"type":"Point","coordinates":[5.0906327,52.0912819]}},{"type":"Feature","properties":{"email":"info@klimmuur-utrecht.nl","indoor":"yes","leisure":"sports_centre","name":"Klimmuur Utrecht","opening_hours":"PH off","phone":"+31 30 246 7181","sport":"climbing","website":"https://klimmuur-utrecht.nl/"},"geometry":{"type":"Point","coordinates":[5.0849112,52.1047122]}},{"type":"Feature","properties":{"addr:city":"Utrecht","addr:housenumber":"1","addr:postcode":"3541DB","addr:street":"Luxemburgpromenade","check_date":"2025-08-10","leisure":"fitness_centre","name":"De Flow Studio","source":"BAG","source:date":"2021-04-02","sport":"yoga","website":"https://www.deflowstudio.nl"},"geometry":{"type":"Point","coordinates":[5.06508,52.0948735]}},{"type":"Feature","properties":{"addr:city":"Utrecht","addr:housenumber":"48","addr:postcode":"3541DM","addr:street":"Vaduzdijk","check_date":"2025-11-20","check_date:opening_hours":"2025-11-20","email":"leidscherijn@fit20.nl","leisure":"fitness_centre","name":"fit20","opening_hours":"Mo-Sa 08:00-20:00","phone":"+31 6 4218 7888","source":"BAG","source:date":"2021-04-02","sport":"fitness","website":"https://fit20utrecht.com"},"geometry":{"type":"Point","coordinates":[5.0645525,52.0952918]}},{"type":"Feature","properties":{"addr:city":"Utrecht","addr:housenumber":"75","addr:postcode":"3585LK","addr:street":"Mytylweg","club":"sport","description":"U-Track is een Utrechtse vereniging, die een volledig atletiekaanbod biedt voor iedereen van jong tot oud. Er zijn verschillende loopgroepen op de baan en in het bos, je kan bij U-Track op elke leeftijd op elk niveau aan alle atletiekonderdelen meedoen.","image":"https://www.u-track.nl/wp-content/uploads/2021/06/Logo-u-track-160x107.jpg","leisure":"sports_centre","name":"U-Track","operator":"U-Track","source":"BAG","source:date":"2021-04-04","sport":"athletics","website":"https://www.u-track.nl"},"geometry":{"type":"Point","coordinates":[5.1561409,52.0790377]}},{"type":"Feature","properties":{"addr:city":"Bilthoven","addr:housenumber":"129","addr:postcode":"3721BC","addr:street":"Leyenseweg","leisure":"sports_centre","name":"Zwembad Brandenburg","source":"BAG","source:date":"2021-04-11","sport":"swimming"},"geometry":{"type":"Point","coordinates":[5.189047,52.1251882]}},{"type":"Feature","properties":{"addr:city":"Utrecht","addr:housenumber":"19","addr:postcode":"3521BJ","addr:street":"Croeselaan","branch":"Utrecht Wonderwoods","brand":"SportCity","brand:website":"https://www.sportcity.nl","brand:wikidata":"Q131984002","check_date":"2026-04-10","leisure":"fitness_centre","name":"SportCity","opening_hours":"Mo-Fr 07:00-23:00; Sa-Su 08:00-18:00","source":"BAG","source:date":"2021-05-14","website":"https://www.sportcity.nl/utrecht/wonderwoods"},"geometry":{"type":"Point","coordinates":[5.105997,52.087405]}},{"type":"Feature","properties":{"addr:city":"De Bilt","addr:housenumber":"1","addr:postcode":"3731AL","addr:street":"Weltevreden","email":"secretaris@fcdebilt.nl","leisure":"sports_centre","name":"FC De Bilt","phone":"+31 30 220 4575","sport":"soccer","website":"https://www.fcdebilt.nl","wikidata":"Q4845631","wikipedia":"nl:FC De Bilt"},"geometry":{"type":"Point","coordinates":[5.1717689,52.1137665]}},{"type":"Feature","properties":{"leisure":"fitness_centre","name":"Tigers Gym","website":"https://tigersgym.nl/"},"geometry":{"type":"Point","coordinates":[5.0957085,52.0859555]}},{"type":"Feature","properties":{"addr:city":"Utrecht","addr:housenumber":"1A","addr:postcode":"3532AE","addr:street":"Steenovenweg","check_date":"2025-11-21","check_date:opening_hours":"2025-11-21","email":"info@vitutrecht.nl","instagram":"vi.utrecht","leisure":"fitness_centre","name":"VI Utrecht","opening_hours":"Mo-Fr 07:00-21:30; Sa-Su 09:00-12:00 \"Hours change\"","source":"BAG","source:date":"2023-07-22","website":"https://www.viutrecht.nl"},"geometry":{"type":"Point","coordinates":[5.0831787,52.0962485]}},{"type":"Feature","properties":{"addr:city":"Utrecht","addr:housenumber":"80","addr:postcode":"3526LB","addr:street":"Eendrachtlaan","branch":"Zeehaenkade","check_date":"2026-04-10","leisure":"sports_centre","name":"Peakz Padel","operator":"Peakz","operator:website":"https://www.peakzpadel.nl","sport":"padel","website":"https://www.peakzpadel.nl/locaties/zeehaenkade"},"geometry":{"type":"Point","coordinates":[5.1111965,52.0645328]}},{"type":"Feature","properties":{"addr:city":"Utrecht","addr:housenumber":"139A","addr:postcode":"3585LA","addr:street":"Koningsweg","leisure":"sports_centre","name":"S.V. Rivierwijkers","source":"BAG","source:date":"2013-11-26","sport":"soccer","toilets:wheelchair":"no","wheelchair":"limited","wheelchair:description":"Drempel ca 5 cm. Toiletdeur draait naar binnen.","wikidata":"Q3202476","wikipedia":"nl:SV Rivierwijkers"},"geometry":{"type":"Point","coordinates":[5.1464677,52.0723857]}},{"type":"Feature","properties":{"addr:city":"Utrecht","addr:housenumber":"444","addr:postcode":"3582LK","addr:street":"Burgemeester Fockema Andreaeplein","leisure":"fitness_centre","name":"Dutch Gym","opening_hours":"24/7","phone":"+31 30 878 53 25","source":"BAG","source:date":"2024-10-15","sport":"fitness","start_date":"2025-02-17","website":"https://dutchgym.nl/dutch-gym-utrecht-oost/"},"geometry":{"type":"Point","coordinates":[5.1360173,52.0814]}},{"type":"Feature","properties":{"addr:city":"Utrecht","addr:housenumber":"18D","addr:postcode":"3552CS","addr:street":"Thorbeckelaan","brand":"Newstyle Healthcenters","check_date":"2025-11-17","check_date:opening_hours":"2025-11-17","email":"thorbecke@newstylehealthcenters.com","facebook":"newstylehealthcenters","leisure":"fitness_centre","name":"Sportschool Thorbeckepark","opening_hours":"24/7","opening_hours:office":"Mo-Th 08:00-22:30, Fr 08:00-16:00, Sa-Su 09:00-16:00","phone":"+31 88 1661 026","website":"https://newstylehealthcenters.com/sportschool-thorbecke-utrecht/"},"geometry":{"type":"Point","coordinates":[5.0982768,52.1066442]}},{"type":"Feature","properties":{"addr:city":"Utrecht","addr:housenumber":"206","addr:postcode":"3534AP","addr:street":"Tractieweg","branch":"De Box","check_date":"2025-11-08","check_date:opening_hours":"2025-11-08","email":"info@rootspremiumgym.com","leisure":"fitness_centre","name":"Roots Premium Gym","opening_hours":"Mo-Th 07:00-21:30, Fr 07:00-19:30, Sa-Su 08:00-15:00","phone":"+31 30 227 3544","website":"https://www.rootspremiumgym.com/debox"},"geometry":{"type":"Point","coordinates":[5.0853597,52.103062]}},{"type":"Feature","properties":{"addr:city":"Utrecht","addr:housenumber":"20-24","addr:postcode":"3513BK","addr:street":"Kaatstraat","check_date":"2025-11-17","check_date:opening_hours":"2025-11-17","email":"hello@reflex-utrecht.com","leisure":"fitness_centre","name":"Reflex Training Utrecht","opening_hours":"Mo 07:00-21:45; Tu 17:45-21:30; We 07:00-21:30; Th 16:30-21:30; Fr 07:00-12:15; Sa 08:15-13:00; Su off","phone":"+31 6 5712 9352","sport":"boxing;kickboxing;fitness","toilets":"yes","toilets:access":"customers","website":"https://www.reflex-utrecht.com"},"geometry":{"type":"Point","coordinates":[5.1128564,52.0980482]}},{"type":"Feature","properties":{"access":"customers","leisure":"swimming_pool"},"geometry":{"type":"Point","coordinates":[5.0913645,52.0770748]}},{"type":"Feature","properties":{"addr:city":"Utrecht","addr:housenumber":"28","addr:postcode":"3511ED","addr:street":"Stationsplein","branch":"Utrecht Stationsplein","check_date":"2025-10-22","check_date:opening_hours":"2025-10-22","leisure":"fitness_centre","level":"2","name":"TrainMore","opening_hours":"Mo-Fr 06:00-23:00; Sa-Su 07:00-23:00","website":"https://trainmore.com/nl-NL/clubs/utrecht/stationsplein/"},"geometry":{"type":"Point","coordinates":[5.1104682,52.0908947]}},{"type":"Feature","properties":{"leisure":"sports_centre","name":"Jiki Shin Kan","opening_hours":"Tu, Th 20:00-21:30","phone":"+31 6 53832287","sport":"aikido","website":"https://jikishinkan-utrecht.nl/"},"geometry":{"type":"Point","coordinates":[5.0962639,52.0963372]}},{"type":"Feature","properties":{"addr:city":"Nieuwegein","addr:housenumber":"41A","addr:postcode":"3438MR","addr:street":"Iepenhoeve","climbing:boulder":"yes","indoor":"yes","leisure":"sports_centre","name":"National Climbing Center Nieuwegein","phone":"+31 88 123 6910","source":"BAG","source:date":"2026-01-09","sport":"climbing","website":"https://www.climbingnetwork.nl/indoor/locatie/national-climbingcenter-nieuwegein"},"geometry":{"type":"Point","coordinates":[5.0921099,52.0478674]}},{"type":"Feature","properties":{"addr:city":"Utrecht","addr:housenumber":"161","addr:postcode":"3565CE","addr:street":"Mississippidreef","leisure":"sports_centre","name":"Peakz Padel Vechtsebanen","operator":"Peakz","operator:website":"https://peakzpadel.nl","sport":"padel","website":"https://peakzpadel.nl/locaties/utrecht/vechtsebanen"},"geometry":{"type":"Point","coordinates":[5.0873454,52.1223929]}},{"type":"Feature","properties":{"addr:city":"Utrecht","addr:housenumber":"8","addr:postcode":"3565CH","addr:street":"Manitobadreef","leisure":"sports_centre","name":"De Padelbaan","sport":"padel","website":"https://depadelbaan.nl/"},"geometry":{"type":"Point","coordinates":[5.0867955,52.1320055]}},{"type":"Feature","properties":{"addr:city":"Utrecht","addr:housenumber":"1C","addr:postcode":"3531AK","addr:street":"Muntkade","leisure":"fitness_centre","name":"TrainMore","opening_hours":"Mo-Fr 06:00-23:00; Sa-Su 07:00-23:00; PH 09:00-18:00","source":"BAG","source:date":"2022-11-21","sport":"fitness","start_date":"2026-04-02","website":"https://trainmore.com/nl-NL/clubs/utrecht/muntgebouw/"},"geometry":{"type":"Point","coordinates":[5.0970943,52.0868923]}},{"type":"Feature","properties":{"leisure":"park","name":"Abraham Dolehof"},"geometry":{"type":"Point","coordinates":[5.1224231,52.0880837]}},{"type":"Feature","properties":{"leisure":"park","name":"Regulierenkloostertuin"},"geometry":{"type":"Point","coordinates":[5.1204009,52.0870488]}},{"type":"Feature","properties":{"leisure":"park","name":"Molenpark"},"geometry":{"type":"Point","coordinates":[5.0997091,52.089469]}},{"type":"Feature","properties":{"leisure":"park","name":"Tolsteegplantsoen"},"geometry":{"type":"Point","coordinates":[5.1249189,52.0755645]}},{"type":"Feature","properties":{"leisure":"park","name":"Jochem Uytdehaageplantsoen"},"geometry":{"type":"Point","coordinates":[5.0877531,52.0836055]}},{"type":"Feature","properties":{"leisure":"park","name":"Javaplein"},"geometry":{"type":"Point","coordinates":[5.1020823,52.0902677]}},{"type":"Feature","properties":{"leisure":"park"},"geometry":{"type":"Point","coordinates":[5.1122782,52.0831052]}},{"type":"Feature","properties":{"access":"private","leisure":"park","name":"Park Welgelegen"},"geometry":{"type":"Point","coordinates":[5.088964,52.0829952]}},{"type":"Feature","properties":{"description":"Amelisweerd","leisure":"park","name":"Amelisweerd","website":"https://www.vriendenvanamelisweerd.nl/","wikipedia":"nl:Amelisweerd"},"geometry":{"type":"Point","coordinates":[5.1618755,52.0731969]}},{"type":"Feature","properties":{"leisure":"park","name":"Park Oog in Al"},"geometry":{"type":"Point","coordinates":[5.0911419,52.08688]}},{"type":"Feature","properties":{"heritage":"2","heritage:operator":"rce","leisure":"park","name":"Wilhelminapark","ref:rce":"514409","source":"Rijksdienst voor het Cultureel Erfgoed","wikidata":"Q3916683","wikimedia_commons":"Category:Wilhelminapark, Utrecht","wikipedia":"nl:Wilhelminapark (Utrecht)"},"geometry":{"type":"Point","coordinates":[5.140461,52.0883201]}},{"type":"Feature","properties":{"leisure":"park","name":"Majellapark","wikidata":"Q2674659","wikimedia_commons":"Category:Majellapark","wikipedia":"nl:Majellapark"},"geometry":{"type":"Point","coordinates":[5.0891227,52.0952644]}},{"type":"Feature","properties":{"leisure":"park","name":"Julianapark","wikidata":"Q2467179","wikimedia_commons":"Category:Julianapark, Utrecht","wikipedia":"nl:Julianapark (Utrecht)"},"geometry":{"type":"Point","coordinates":[5.087729,52.1062905]}},{"type":"Feature","properties":{"leisure":"park","source":"survey"},"geometry":{"type":"Point","coordinates":[5.0948669,52.071539]}},{"type":"Feature","properties":{"leisure":"park","source":"survey"},"geometry":{"type":"Point","coordinates":[5.096413,52.0708904]}},{"type":"Feature","properties":{"leisure":"park","name":"Herdenkplek schietincident 18 maart 2019","source":"survey"},"geometry":{"type":"Point","coordinates":[5.0920715,52.0807788]}},{"type":"Feature","properties":{"leisure":"pitch","lit":"yes","sport":"soccer","surface":"grass"},"geometry":{"type":"Point","coordinates":[5.1458516,52.0783651]}},{"type":"Feature","properties":{"brand":"Cruyff Court","brand:wikidata":"Q2385493","leisure":"pitch","name":"Cruyff Court Kanaleneiland","sport":"soccer","surface":"artificial_turf"},"geometry":{"type":"Point","coordinates":[5.0904807,52.0765354]}},{"type":"Feature","properties":{"leisure":"pitch","source":"survey and yahoo aerial imaging","sport":"softball"},"geometry":{"type":"Point","coordinates":[5.0914234,52.0547239]}},{"type":"Feature","properties":{"leisure":"pitch","lit":"no","sport":"softball","surface":"grass"},"geometry":{"type":"Point","coordinates":[5.0927092,52.0543951]}},{"type":"Feature","properties":{"leisure":"pitch","source":"survey and yahoo aerial imaging","sport":"rugby_union","surface":"grass"},"geometry":{"type":"Point","coordinates":[5.0938656,52.0554965]}},{"type":"Feature","properties":{"leisure":"pitch","lit":"yes","source":"survey and yahoo aerial imaging","sport":"soccer","surface":"artificial_turf"},"geometry":{"type":"Point","coordinates":[5.0916691,52.0569206]}},{"type":"Feature","properties":{"leisure":"pitch","sport":"softball"},"geometry":{"type":"Point","coordinates":[5.091755,52.0554136]}},{"type":"Feature","properties":{"leisure":"pitch","lit":"yes","source":"survey and yahoo aerial imaging","sport":"basketball"},"geometry":{"type":"Point","coordinates":[5.0811571,52.057726]}},{"type":"Feature","properties":{"landuse":"grass","leisure":"park"},"geometry":{"type":"Point","coordinates":[5.0805866,52.057762]}},{"type":"Feature","properties":{"leisure":"park","source":"survey and yahoo aerial imaging"},"geometry":{"type":"Point","coordinates":[5.0715495,52.0579626]}},{"type":"Feature","properties":{"leisure":"park","source":"survey and yahoo aerial imaging"},"geometry":{"type":"Point","coordinates":[5.0741094,52.0601626]}},{"type":"Feature","properties":{"leisure":"park","name":"Vierseizoenentuin"},"geometry":{"type":"Point","coordinates":[5.0865996,52.0650173]}},{"type":"Feature","properties":{"leisure":"pitch","lit":"yes","sport":"soccer","surface":"artificial_turf"},"geometry":{"type":"Point","coordinates":[5.1270302,52.0630298]}},{"type":"Feature","properties":{"leisure":"pitch","lit":"yes","sport":"soccer","surface":"artificial_turf"},"geometry":{"type":"Point","coordinates":[5.1267117,52.0621776]}},{"type":"Feature","properties":{"leisure":"pitch","lit":"yes","sport":"soccer","surface":"artificial_turf"},"geometry":{"type":"Point","coordinates":[5.1262957,52.0614228]}},{"type":"Feature","properties":{"leisure":"pitch","sport":"soccer","surface":"artificial_turf"},"geometry":{"type":"Point","coordinates":[5.1259692,52.0608479]}},{"type":"Feature","properties":{"leisure":"pitch","sport":"soccer"},"geometry":{"type":"Point","coordinates":[5.1256663,52.0601437]}},{"type":"Feature","properties":{"landuse":"grass","leisure":"park"},"geometry":{"type":"Point","coordinates":[5.1254669,52.047545]}},{"type":"Feature","properties":{"leisure":"park"},"geometry":{"type":"Point","coordinates":[5.1286321,52.0523684]}},{"type":"Feature","properties":{"ele":"-1","leisure":"pitch","lit":"no","sport":"soccer","surface":"asphalt"},"geometry":{"type":"Point","coordinates":[5.1354815,52.0613319]}},{"type":"Feature","properties":{"leisure":"pitch","sport":"basketball","surface":"asphalt"},"geometry":{"type":"Point","coordinates":[5.1385498,52.0658544]}},{"type":"Feature","properties":{"leisure":"park","source":"survey"},"geometry":{"type":"Point","coordinates":[5.1126369,52.0730116]}},{"type":"Feature","properties":{"doggiedoo":"no","leisure":"park","source":"survey"},"geometry":{"type":"Point","coordinates":[5.1164156,52.0732732]}},{"type":"Feature","properties":{"leisure":"park"},"geometry":{"type":"Point","coordinates":[5.116077,52.0894629]}},{"type":"Feature","properties":{"leisure":"park"},"geometry":{"type":"Point","coordinates":[5.1192482,52.0867244]}},{"type":"Feature","properties":{"leisure":"park","name":"Griftpark","wheelchair":"yes","wikidata":"Q2078523","wikimedia_commons":"Category:Griftpark","wikipedia":"nl:Griftpark"},"geometry":{"type":"Point","coordinates":[5.1267268,52.1007774]}},{"type":"Feature","properties":{"leisure":"pitch","lit":"yes","sport":"skateboard","surface":"concrete"},"geometry":{"type":"Point","coordinates":[5.1277345,52.0988451]}},{"type":"Feature","properties":{"leisure":"park"},"geometry":{"type":"Point","coordinates":[5.126606,52.1053926]}},{"type":"Feature","properties":{"alt_name":"Merwedeplantsoen","leisure":"park","name":"Ringpark West","website":"https://ringparkdichterswijk.nl/"},"geometry":{"type":"Point","coordinates":[5.1082064,52.0803774]}},{"type":"Feature","properties":{"leisure":"park"},"geometry":{"type":"Point","coordinates":[5.1181294,52.0826438]}},{"type":"Feature","properties":{"leisure":"park"},"geometry":{"type":"Point","coordinates":[5.1124738,52.0956131]}},{"type":"Feature","properties":{"leisure":"park"},"geometry":{"type":"Point","coordinates":[5.1190096,52.0756259]}},{"type":"Feature","properties":{"leisure":"park","name":"Voorveldse Polder","website":"https://www.voorveldsepolder.nl/","wikidata":"Q14856699","wikipedia":"nl:Voorveldse Polder"},"geometry":{"type":"Point","coordinates":[5.1491041,52.100188]}},{"type":"Feature","properties":{"leisure":"pitch","ref":"18","sport":"soccer","surface":"grass"},"geometry":{"type":"Point","coordinates":[5.1453086,52.0761605]}},{"type":"Feature","properties":{"leisure":"pitch","ref":"19","sport":"soccer","surface":"grass"},"geometry":{"type":"Point","coordinates":[5.1469513,52.0762704]}},{"type":"Feature","properties":{"leisure":"pitch","name":"6","sport":"soccer","surface":"grass"},"geometry":{"type":"Point","coordinates":[5.0632891,52.1247736]}},{"type":"Feature","properties":{"leisure":"pitch","name":"7","sport":"soccer","surface":"grass"},"geometry":{"type":"Point","coordinates":[5.0625334,52.1243097]}},{"type":"Feature","properties":{"leisure":"pitch","name":"10","sport":"soccer"},"geometry":{"type":"Point","coordinates":[5.0601268,52.1244349]}},{"type":"Feature","properties":{"leisure":"pitch","name":"9","sport":"korfball","surface":"artificial"},"geometry":{"type":"Point","coordinates":[5.0616536,52.1241792]}},{"type":"Feature","properties":{"leisure":"pitch","lit":"yes","name":"4","sport":"soccer","surface":"grass"},"geometry":{"type":"Point","coordinates":[5.0611277,52.1252341]}},{"type":"Feature","properties":{"leisure":"pitch","lit":"yes","name":"2","sport":"soccer","surface":"artificial"},"geometry":{"type":"Point","coordinates":[5.0627223,52.126159]}},{"type":"Feature","properties":{"leisure":"pitch","name":"5","sport":"soccer","surface":"grass"},"geometry":{"type":"Point","coordinates":[5.0640771,52.125259]}},{"type":"Feature","properties":{"leisure":"pitch","lit":"no","name":"3","sport":"soccer","surface":"artificial"},"geometry":{"type":"Point","coordinates":[5.0619445,52.1256843]}},{"type":"Feature","properties":{"leisure":"pitch","name":"8"},"geometry":{"type":"Point","coordinates":[5.0620804,52.1235987]}},{"type":"Feature","properties":{"access":"customers","leisure":"pitch","sport":"beachvolleyball","surface":"sand"},"geometry":{"type":"Point","coordinates":[5.1742974,52.0918318]}},{"type":"Feature","properties":{"leisure":"park","name":"Landgoed Oostbroek","wikipedia":"nl:Oostbroek (De Bilt)"},"geometry":{"type":"Point","coordinates":[5.193653,52.0889277]}},{"type":"Feature","properties":{"leisure":"park","name":"Landgoed Vollenhoven","website":"https://landgoedvollenhoven.nl/"},"geometry":{"type":"Point","coordinates":[5.2047482,52.0979794]}},{"type":"Feature","properties":{"leisure":"pitch","sport":"field_hockey"},"geometry":{"type":"Point","coordinates":[5.1563346,52.1301173]}},{"type":"Feature","properties":{"leisure":"pitch","sport":"field_hockey"},"geometry":{"type":"Point","coordinates":[5.1567322,52.1307426]}},{"type":"Feature","properties":{"leisure":"pitch","sport":"field_hockey"},"geometry":{"type":"Point","coordinates":[5.1590887,52.1320004]}},{"type":"Feature","properties":{"leisure":"pitch","sport":"field_hockey"},"geometry":{"type":"Point","coordinates":[5.1594076,52.1325483]}},{"type":"Feature","properties":{"leisure":"pitch","sport":"korfball"},"geometry":{"type":"Point","coordinates":[5.1154677,52.0592776]}},{"type":"Feature","properties":{"leisure":"park","name":"Liesbospark"},"geometry":{"type":"Point","coordinates":[5.1137404,52.0605144]}},{"type":"Feature","properties":{"leisure":"park","name":"Camminghaplantsoen"},"geometry":{"type":"Point","coordinates":[5.122157,52.0639552]}},{"type":"Feature","properties":{"leisure":"park","name":"Hamersplantsoen","official_name":"Mr. J.M.M. Hamersplantsoen","toponym":"park"},"geometry":{"type":"Point","coordinates":[5.115367,52.0635748]}},{"type":"Feature","properties":{"leisure":"pitch","lit":"no","sport":"basketball","surface":"asphalt"},"geometry":{"type":"Point","coordinates":[5.116488,52.0673258]}},{"type":"Feature","properties":{"brand":"Cruyff Court","brand:wikidata":"Q2385493","leisure":"pitch","lit":"yes","name":"Cruyff Court","sport":"soccer","surface":"artificial_turf"},"geometry":{"type":"Point","coordinates":[5.1196929,52.0601164]}},{"type":"Feature","properties":{"leisure":"pitch","lit":"no","sport":"korfball","surface":"asphalt"},"geometry":{"type":"Point","coordinates":[5.1189965,52.0602192]}},{"type":"Feature","properties":{"leisure":"pitch","sport":"soccer"},"geometry":{"type":"Point","coordinates":[5.1137083,52.0594354]}},{"type":"Feature","properties":{"leisure":"pitch","lit":"no","sport":"soccer","surface":"artificial_turf"},"geometry":{"type":"Point","coordinates":[5.1249325,52.064438]}},{"type":"Feature","properties":{"leisure":"park"},"geometry":{"type":"Point","coordinates":[5.1246988,52.1323994]}},{"type":"Feature","properties":{"leisure":"pitch","sport":"soccer","surface":"grass"},"geometry":{"type":"Point","coordinates":[5.0698879,52.1217496]}},{"type":"Feature","properties":{"leisure":"pitch","sport":"soccer","surface":"artificial"},"geometry":{"type":"Point","coordinates":[5.068395,52.1213294]}},{"type":"Feature","properties":{"leisure":"pitch","name":"Hoofdveld","sport":"soccer","surface":"grass"},"geometry":{"type":"Point","coordinates":[5.0674263,52.1208313]}},{"type":"Feature","properties":{"leisure":"pitch","name":"URV"},"geometry":{"type":"Point","coordinates":[5.0671731,52.1233725]}},{"type":"Feature","properties":{"leisure":"pitch","name":"URV"},"geometry":{"type":"Point","coordinates":[5.0664443,52.1228383]}},{"type":"Feature","properties":{"leisure":"pitch","sport":"soccer","surface":"grass"},"geometry":{"type":"Point","coordinates":[5.068668,52.1224531]}},{"type":"Feature","properties":{"leisure":"pitch","name":"2","sport":"soccer","surface":"artificial_turf"},"geometry":{"type":"Point","coordinates":[5.0637882,52.1233299]}},{"type":"Feature","properties":{"leisure":"pitch","name":"1","sport":"soccer","surface":"grass"},"geometry":{"type":"Point","coordinates":[5.0629583,52.1228534]}},{"type":"Feature","properties":{"leisure":"pitch","name":"3","sport":"soccer","surface":"grass"},"geometry":{"type":"Point","coordinates":[5.064668,52.1238287]}},{"type":"Feature","properties":{"leisure":"pitch","sport":"tennis","surface":"gravel"},"geometry":{"type":"Point","coordinates":[5.0664076,52.1212876]}},{"type":"Feature","properties":{"leisure":"pitch","sport":"tennis","surface":"gravel"},"geometry":{"type":"Point","coordinates":[5.0660476,52.1211072]}},{"type":"Feature","properties":{"leisure":"pitch","sport":"tennis","surface":"gravel"},"geometry":{"type":"Point","coordinates":[5.0656667,52.1217293]}},{"type":"Feature","properties":{"leisure":"park"},"geometry":{"type":"Point","coordinates":[5.1069398,52.097888]}},{"type":"Feature","properties":{"leisure":"pitch","sport":"soccer;handball"},"geometry":{"type":"Point","coordinates":[5.1364137,52.0612568]}},{"type":"Feature","properties":{"leisure":"pitch","sport":"basketball"},"geometry":{"type":"Point","coordinates":[5.1361773,52.0612019]}},{"type":"Feature","properties":{"leisure":"park","name":"Victor Hugoplantsoen"},"geometry":{"type":"Point","coordinates":[5.0813415,52.0879671]}},{"type":"Feature","properties":{"leisure":"pitch","ref":"1","sport":"soccer","surface":"artificial_turf"},"geometry":{"type":"Point","coordinates":[5.0797143,52.0932577]}},{"type":"Feature","properties":{"access":"yes","leisure":"pitch","lit":"no","ref":"3"},"geometry":{"type":"Point","coordinates":[5.0796649,52.092394]}},{"type":"Feature","properties":{"leisure":"pitch","ref":"2","sport":"soccer"},"geometry":{"type":"Point","coordinates":[5.0808476,52.0924517]}},{"type":"Feature","properties":{"leisure":"park"},"geometry":{"type":"Point","coordinates":[5.092974,52.1119805]}},{"type":"Feature","properties":{"leisure":"pitch","lit":"yes","source":"Bing","sport":"field_hockey"},"geometry":{"type":"Point","coordinates":[5.0994342,52.1143946]}},{"type":"Feature","properties":{"leisure":"park"},"geometry":{"type":"Point","coordinates":[5.0991162,52.1191814]}},{"type":"Feature","properties":{"leisure":"park","name":"Park De Hoge Weide","wikidata":"Q130762108"},"geometry":{"type":"Point","coordinates":[5.0669592,52.0883647]}},{"type":"Feature","properties":{"leisure":"park"},"geometry":{"type":"Point","coordinates":[5.1919844,52.0719393]}},{"type":"Feature","properties":{"leisure":"park","name":"Van Oostromgaarde"},"geometry":{"type":"Point","coordinates":[5.1933417,52.0727958]}},{"type":"Feature","properties":{"barrier":"fence","leisure":"pitch","lit":"yes","source":"3dShapes","sport":"soccer","surface":"artificial_turf"},"geometry":{"type":"Point","coordinates":[5.1739315,52.0894416]}},{"type":"Feature","properties":{"leisure":"park","name":"Grunoplantsoen"},"geometry":{"type":"Point","coordinates":[5.19184,52.0695305]}},{"type":"Feature","properties":{"leisure":"park","name":"Beerthuizenplantsoen"},"geometry":{"type":"Point","coordinates":[5.1310984,52.0834675]}},{"type":"Feature","properties":{"barrier":"fence","leisure":"park","name":"Gierzwaluwplantsoen"},"geometry":{"type":"Point","coordinates":[5.1127532,52.0748457]}},{"type":"Feature","properties":{"landuse":"grass","leisure":"park","name":"Gees Linnebankplantsoen"},"geometry":{"type":"Point","coordinates":[5.1560768,52.0880473]}},{"type":"Feature","properties":{"dog":"no","leisure":"pitch","source":"survey 01-08-15","sport":"soccer","surface":"artificial_turf"},"geometry":{"type":"Point","coordinates":[5.1566297,52.0859457]}},{"type":"Feature","properties":{"leisure":"park"},"geometry":{"type":"Point","coordinates":[5.1024462,52.0901159]}},{"type":"Feature","properties":{"leisure":"park","name":"Marco Poloplantsoen","source":"survey"},"geometry":{"type":"Point","coordinates":[5.0964478,52.0682831]}},{"type":"Feature","properties":{"leisure":"park","name":"Park de Watertoren"},"geometry":{"type":"Point","coordinates":[5.1184769,52.1140198]}},{"type":"Feature","properties":{"leisure":"pitch","sport":"tennis"},"geometry":{"type":"Point","coordinates":[5.1976058,52.1187231]}},{"type":"Feature","properties":{"leisure":"pitch","source":"3dShapes","sport":"soccer","surface":"grass"},"geometry":{"type":"Point","coordinates":[5.1818891,52.1176326]}},{"type":"Feature","properties":{"leisure":"pitch","sport":"soccer;basketball"},"geometry":{"type":"Point","coordinates":[5.1064475,52.1218499]}},{"type":"Feature","properties":{"landuse":"grass","leisure":"park","source":"3dShapes"},"geometry":{"type":"Point","coordinates":[5.0745717,52.0483089]}},{"type":"Feature","properties":{"leisure":"park","name":"Het Verdwenen Beeldplantsoen","source":"3dShapes"},"geometry":{"type":"Point","coordinates":[5.1142223,52.1019273]}},{"type":"Feature","properties":{"landuse":"grass","leisure":"park","name":"De Rode Touwen","website":"https://www.derodetouwen.nl/"},"geometry":{"type":"Point","coordinates":[5.1034475,52.1013049]}},{"type":"Feature","properties":{"leisure":"park","name":"Monicahof"},"geometry":{"type":"Point","coordinates":[5.1115498,52.0971739]}},{"type":"Feature","properties":{"leisure":"park","name":"Park Groot Zandveld","wikidata":"Q17190897"},"geometry":{"type":"Point","coordinates":[5.0510671,52.0948363]}},{"type":"Feature","properties":{"leisure":"pitch"},"geometry":{"type":"Point","coordinates":[5.054009,52.1355894]}},{"type":"Feature","properties":{"leisure":"pitch","lit":"yes","sport":"soccer","surface":"artificial_turf"},"geometry":{"type":"Point","coordinates":[5.1174214,52.1136608]}},{"type":"Feature","properties":{"access":"permissive","hoops":"2","leisure":"pitch","lit":"no","sport":"basketball","surface":"asphalt"},"geometry":{"type":"Point","coordinates":[5.1177602,52.1134013]}},{"type":"Feature","properties":{"leisure":"pitch","sport":"soccer"},"geometry":{"type":"Point","coordinates":[5.1171603,52.1213217]}},{"type":"Feature","properties":{"leisure":"park"},"geometry":{"type":"Point","coordinates":[5.1021527,52.1213213]}},{"type":"Feature","properties":{"leisure":"park"},"geometry":{"type":"Point","coordinates":[5.1025992,52.1214181]}},{"type":"Feature","properties":{"leisure":"park"},"geometry":{"type":"Point","coordinates":[5.1019916,52.121663]}},{"type":"Feature","properties":{"leisure":"pitch","sport":"soccer"},"geometry":{"type":"Point","coordinates":[5.1266677,52.1147198]}},{"type":"Feature","properties":{"leisure":"pitch","sport":"soccer"},"geometry":{"type":"Point","coordinates":[5.1321154,52.1146968]}},{"type":"Feature","properties":{"leisure":"pitch","sport":"soccer;basketball"},"geometry":{"type":"Point","coordinates":[5.1281887,52.1112837]}},{"type":"Feature","properties":{"leisure":"pitch","lit":"yes","sport":"obstacle_course"},"geometry":{"type":"Point","coordinates":[5.1116247,52.1070159]}},{"type":"Feature","properties":{"leisure":"pitch","lit":"yes","sport":"korfball"},"geometry":{"type":"Point","coordinates":[5.1131456,52.1071992]}},{"type":"Feature","properties":{"leisure":"pitch","lit":"yes","operator":"Synergo","sport":"korfball","website":"https://synergo.nl"},"geometry":{"type":"Point","coordinates":[5.1129127,52.1074537]}},{"type":"Feature","properties":{"leisure":"pitch","lit":"yes","source":"Bing","sport":"soccer"},"geometry":{"type":"Point","coordinates":[5.101218,52.1130978]}},{"type":"Feature","properties":{"leisure":"pitch","sport":"soccer","surface":"concrete"},"geometry":{"type":"Point","coordinates":[5.0934613,52.1236799]}},{"type":"Feature","properties":{"leisure":"pitch","sport":"soccer"},"geometry":{"type":"Point","coordinates":[5.0857676,52.133567]}},{"type":"Feature","properties":{"leisure":"pitch"},"geometry":{"type":"Point","coordinates":[5.0861755,52.132199]}},{"type":"Feature","properties":{"leisure":"pitch","sport":"soccer"},"geometry":{"type":"Point","coordinates":[5.0871918,52.1329088]}},{"type":"Feature","properties":{"leisure":"pitch"},"geometry":{"type":"Point","coordinates":[5.0872058,52.1321844]}},{"type":"Feature","properties":{"leisure":"pitch","sport":"soccer"},"geometry":{"type":"Point","coordinates":[5.0839224,52.1321114]}},{"type":"Feature","properties":{"leisure":"pitch","sport":"soccer"},"geometry":{"type":"Point","coordinates":[5.0850806,52.1330163]}},{"type":"Feature","properties":{"leisure":"pitch","sport":"soccer"},"geometry":{"type":"Point","coordinates":[5.0852712,52.1314416]}},{"type":"Feature","properties":{"leisure":"pitch","sport":"soccer"},"geometry":{"type":"Point","coordinates":[5.0795774,52.1274169]}},{"type":"Feature","properties":{"leisure":"pitch","sport":"soccer"},"geometry":{"type":"Point","coordinates":[5.0797602,52.1287052]}},{"type":"Feature","properties":{"leisure":"pitch","operator":"Utrecht Dominators","sport":"american_football"},"geometry":{"type":"Point","coordinates":[5.0787164,52.1278795]}},{"type":"Feature","properties":{"leisure":"pitch","operator":"VV Jaffa","sport":"soccer"},"geometry":{"type":"Point","coordinates":[5.0807223,52.127983]}},{"type":"Feature","properties":{"leisure":"park"},"geometry":{"type":"Point","coordinates":[5.1158108,52.0659977]}},{"type":"Feature","properties":{"leisure":"park","name":"Kastelenplantsoen"},"geometry":{"type":"Point","coordinates":[5.1187217,52.0601213]}},{"type":"Feature","properties":{"leisure":"pitch"},"geometry":{"type":"Point","coordinates":[5.1107562,52.1046906]}},{"type":"Feature","properties":{"leisure":"pitch","lit":"yes","name":"2","sport":"soccer","surface":"artificial_turf"},"geometry":{"type":"Point","coordinates":[5.0958747,52.1064664]}},{"type":"Feature","properties":{"leisure":"pitch","lit":"yes","name":"1","sport":"soccer","surface":"artificial_turf"},"geometry":{"type":"Point","coordinates":[5.0965991,52.1069593]}},{"type":"Feature","properties":{"leisure":"pitch","lit":"yes","name":"3","sport":"soccer","surface":"artificial_turf"},"geometry":{"type":"Point","coordinates":[5.0975097,52.1075382]}},{"type":"Feature","properties":{"leisure":"pitch","operator":"Magreb '90","sport":"soccer"},"geometry":{"type":"Point","coordinates":[5.0846911,52.0688147]}},{"type":"Feature","properties":{"leisure":"pitch","lit":"no","operator":"Magreb '90","sport":"soccer","surface":"grass"},"geometry":{"type":"Point","coordinates":[5.0858372,52.0692464]}},{"type":"Feature","properties":{"access":"yes","barrier":"fence","leisure":"pitch","reservation":"no","sport":"soccer","surface":"artificial_turf"},"geometry":{"type":"Point","coordinates":[5.0955646,52.1102504]}},{"type":"Feature","properties":{"access":"yes","leisure":"pitch","lit":"no","sport":"soccer","surface":"artificial_turf"},"geometry":{"type":"Point","coordinates":[5.1035896,52.1039626]}},{"type":"Feature","properties":{"access":"yes","leisure":"pitch","sport":"soccer"},"geometry":{"type":"Point","coordinates":[5.1006622,52.1024293]}},{"type":"Feature","properties":{"access":"yes","leisure":"pitch","lit":"yes","sport":"basketball;soccer","surface":"concrete"},"geometry":{"type":"Point","coordinates":[5.0975262,52.1122414]}},{"type":"Feature","properties":{"leisure":"pitch","lit":"yes","sport":"tennis","surface":"clay"},"geometry":{"type":"Point","coordinates":[5.174285,52.0690077]}},{"type":"Feature","properties":{"leisure":"pitch","lit":"yes","sport":"tennis","surface":"clay"},"geometry":{"type":"Point","coordinates":[5.1741077,52.0689132]}},{"type":"Feature","properties":{"leisure":"pitch","lit":"yes","sport":"tennis","surface":"clay"},"geometry":{"type":"Point","coordinates":[5.1743438,52.0685708]}},{"type":"Feature","properties":{"leisure":"pitch","lit":"yes","sport":"tennis","surface":"clay"},"geometry":{"type":"Point","coordinates":[5.1741537,52.068485]}},{"type":"Feature","properties":{"leisure":"pitch","lit":"yes","sport":"tennis","surface":"clay"},"geometry":{"type":"Point","coordinates":[5.1745337,52.0686542]}},{"type":"Feature","properties":{"leisure":"pitch","lit":"yes","sport":"tennis","surface":"clay"},"geometry":{"type":"Point","coordinates":[5.17476,52.0692565]}},{"type":"Feature","properties":{"leisure":"pitch","lit":"yes","sport":"tennis","surface":"clay"},"geometry":{"type":"Point","coordinates":[5.175015,52.0690115]}},{"type":"Feature","properties":{"leisure":"pitch","lit":"yes","sport":"tennis","surface":"clay"},"geometry":{"type":"Point","coordinates":[5.1748851,52.0691329]}},{"type":"Feature","properties":{"leisure":"pitch","lit":"yes","sport":"tennis","surface":"clay"},"geometry":{"type":"Point","coordinates":[5.1739328,52.0688191]}},{"type":"Feature","properties":{"access":"yes","hoops":"2","leisure":"pitch","sport":"soccer;basketball","surface":"paving_stones"},"geometry":{"type":"Point","coordinates":[5.0914995,52.1074641]}},{"type":"Feature","properties":{"leisure":"park"},"geometry":{"type":"Point","coordinates":[5.0805717,52.1129735]}},{"type":"Feature","properties":{"leisure":"park","source":"survey"},"geometry":{"type":"Point","coordinates":[5.1145771,52.0676968]}},{"type":"Feature","properties":{"barrier":"fence","leisure":"pitch","lit":"no","sport":"soccer;basketball;table_tennis","surface":"paving_stones"},"geometry":{"type":"Point","coordinates":[5.1145653,52.0733012]}},{"type":"Feature","properties":{"leisure":"park","source":"survey"},"geometry":{"type":"Point","coordinates":[5.1136201,52.0664349]}},{"type":"Feature","properties":{"leisure":"pitch","sport":"athletics"},"geometry":{"type":"Point","coordinates":[5.0835017,52.1221516]}},{"type":"Feature","properties":{"access":"yes","leisure":"pitch","sport":"basketball"},"geometry":{"type":"Point","coordinates":[5.1166465,52.107529]}},{"type":"Feature","properties":{"leisure":"pitch","lit":"no","sport":"soccer"},"geometry":{"type":"Point","coordinates":[5.1261242,52.1054144]}},{"type":"Feature","properties":{"leisure":"pitch","lit":"yes","sport":"tennis","surface":"asphalt"},"geometry":{"type":"Point","coordinates":[5.1267876,52.1056523]}},{"type":"Feature","properties":{"leisure":"pitch","sport":"table_tennis","surface":"asphalt"},"geometry":{"type":"Point","coordinates":[5.0971307,52.0682142]}},{"type":"Feature","properties":{"leisure":"pitch","lit":"no","sport":"boules","surface":"fine_gravel"},"geometry":{"type":"Point","coordinates":[5.0962912,52.0685135]}},{"type":"Feature","properties":{"leisure":"pitch","sport":"basketball","surface":"asphalt"},"geometry":{"type":"Point","coordinates":[5.097274,52.0683456]}},{"type":"Feature","properties":{"leisure":"pitch","sport":"tennis","surface":"asphalt"},"geometry":{"type":"Point","coordinates":[5.0970189,52.0684848]}},{"type":"Feature","properties":{"check_date:surface":"2023-07-14","leisure":"pitch","lit":"yes","sport":"soccer","surface":"asphalt"},"geometry":{"type":"Point","coordinates":[5.0968944,52.0687421]}},{"type":"Feature","properties":{"barrier":"fence","brand":"Cruyff Court","brand:wikidata":"Q2385493","leisure":"pitch","name":"Cruyff Court Marco Poloplantsoen","sport":"soccer","surface":"artificial_turf","toilets:wheelchair":"no","wheelchair":"yes"},"geometry":{"type":"Point","coordinates":[5.0978987,52.0679461]}},{"type":"Feature","properties":{"barrier":"fence","leisure":"pitch","lit":"yes","sport":"basketball","surface":"artificial_turf"},"geometry":{"type":"Point","coordinates":[5.1202692,52.0803613]}},{"type":"Feature","properties":{"leisure":"pitch","lit":"no","source":"local knowledge","sport":"soccer","surface":"asphalt","wheelchair":"yes"},"geometry":{"type":"Point","coordinates":[5.1275883,52.0779601]}},{"type":"Feature","properties":{"leisure":"pitch","ref":"H2","source":"Bing","sport":"field_hockey","surface":"artificial"},"geometry":{"type":"Point","coordinates":[5.1497128,52.0736765]}},{"type":"Feature","properties":{"leisure":"pitch","ref":"A","sport":"soccer"},"geometry":{"type":"Point","coordinates":[5.1508731,52.1054642]}},{"type":"Feature","properties":{"leisure":"pitch","ref":"2","sport":"soccer"},"geometry":{"type":"Point","coordinates":[5.1500357,52.1068756]}},{"type":"Feature","properties":{"leisure":"pitch","ref":"1","sport":"soccer"},"geometry":{"type":"Point","coordinates":[5.1497187,52.1075234]}},{"type":"Feature","properties":{"leisure":"pitch","ref":"6","sport":"soccer","surface":"artificial_turf"},"geometry":{"type":"Point","coordinates":[5.1471137,52.1067881]}},{"type":"Feature","properties":{"leisure":"pitch","ref":"5","sport":"soccer","surface":"grass"},"geometry":{"type":"Point","coordinates":[5.1456981,52.1069504]}},{"type":"Feature","properties":{"leisure":"pitch","ref":"7","sport":"soccer"},"geometry":{"type":"Point","coordinates":[5.1488293,52.1064461]}},{"type":"Feature","properties":{"leisure":"pitch","lit":"yes","ref":"B","sport":"soccer","surface":"artificial_turf"},"geometry":{"type":"Point","coordinates":[5.1511361,52.1042121]}},{"type":"Feature","properties":{"leisure":"pitch","source":"Bing","sport":"tennis"},"geometry":{"type":"Point","coordinates":[5.1481752,52.1069283]}},{"type":"Feature","properties":{"leisure":"pitch","ref":"4","sport":"soccer","surface":"grass"},"geometry":{"type":"Point","coordinates":[5.1459303,52.1063451]}},{"type":"Feature","properties":{"leisure":"pitch","ref":"3 / C","sport":"soccer"},"geometry":{"type":"Point","coordinates":[5.1503404,52.1062481]}},{"type":"Feature","properties":{"leisure":"pitch","ref":"K","sport":"korfball"},"geometry":{"type":"Point","coordinates":[5.1503513,52.1047083]}},{"type":"Feature","properties":{"leisure":"pitch","source":"Bing","sport":"soccer","surface":"grass"},"geometry":{"type":"Point","coordinates":[5.0897579,52.0571369]}},{"type":"Feature","properties":{"leisure":"pitch","lit":"no","source":"Bing","sport":"soccer","surface":"grass"},"geometry":{"type":"Point","coordinates":[5.087145,52.0567683]}},{"type":"Feature","properties":{"leisure":"pitch","source":"Bing","sport":"soccer","surface":"grass"},"geometry":{"type":"Point","coordinates":[5.0890796,52.0566446]}},{"type":"Feature","properties":{"leisure":"pitch","lit":"no","source":"Bing","sport":"soccer","surface":"grass"},"geometry":{"type":"Point","coordinates":[5.0878846,52.0572646]}},{"type":"Feature","properties":{"leisure":"pitch","lit":"no","source":"Bing","sport":"soccer","surface":"grass"},"geometry":{"type":"Point","coordinates":[5.0883512,52.0561414]}},{"type":"Feature","properties":{"leisure":"pitch","lit":"yes","source":"Bing","sport":"soccer","surface":"artificial_turf"},"geometry":{"type":"Point","coordinates":[5.0904603,52.0560696]}},{"type":"Feature","properties":{"leisure":"pitch","lit":"yes","source":"Bing","sport":"soccer"},"geometry":{"type":"Point","coordinates":[5.0897108,52.05552]}},{"type":"Feature","properties":{"leisure":"pitch","sport":"skateboard"},"geometry":{"type":"Point","coordinates":[5.1279824,52.1217961]}},{"type":"Feature","properties":{"barrier":"fence","fence_type":"bars","leisure":"pitch","lit":"no","source":"local survey & PDOK 25 15-08-21","sport":"soccer","surface":"artificial_turf"},"geometry":{"type":"Point","coordinates":[5.1285564,52.0758859]}},{"type":"Feature","properties":{"barrier":"fence","leisure":"pitch","lit":"yes","sport":"soccer","surface":"artificial_turf"},"geometry":{"type":"Point","coordinates":[5.12695,52.0675267]}},{"type":"Feature","properties":{"leisure":"park","name":"Park de Gagel","wikidata":"Q2358121"},"geometry":{"type":"Point","coordinates":[5.104096,52.1207746]}},{"type":"Feature","properties":{"access":"yes","hoops":"2","leisure":"pitch","lit":"yes","sport":"basketball","surface":"asphalt"},"geometry":{"type":"Point","coordinates":[5.1272358,52.0990813]}},{"type":"Feature","properties":{"access":"yes","leisure":"pitch","lit":"no","sport":"soccer","surface":"paving_stones"},"geometry":{"type":"Point","coordinates":[5.125299,52.100055]}},{"type":"Feature","properties":{"leisure":"pitch","sport":"beachvolleyball","surface":"sand"},"geometry":{"type":"Point","coordinates":[5.0641633,52.1221395]}},{"type":"Feature","properties":{"access":"yes","leisure":"pitch","sport":"soccer","surface":"artificial_turf"},"geometry":{"type":"Point","coordinates":[5.1243597,52.1009179]}},{"type":"Feature","properties":{"leisure":"pitch","lit":"no","sport":"skateboard","surface":"concrete"},"geometry":{"type":"Point","coordinates":[5.1275902,52.0991862]}},{"type":"Feature","properties":{"leisure":"pitch","sport":"soccer"},"geometry":{"type":"Point","coordinates":[5.1463232,52.0717168]}},{"type":"Feature","properties":{"leisure":"pitch","lit":"yes","sport":"field_hockey"},"geometry":{"type":"Point","coordinates":[5.0513416,52.1306515]}},{"type":"Feature","properties":{"leisure":"pitch","lit":"yes","sport":"field_hockey"},"geometry":{"type":"Point","coordinates":[5.0519412,52.130234]}},